Ref.Data,Citta,Zona,Address,Price,Dimension (m2),Floor,Ascensore,Rooms,Bathrooms,Build.Date,Stato,longitude,latitude
09/05/2023,Torino,Rebaudengo,via porpora 39,59000,50,0,1,2,1,1960,Buono / Abitabile,7.696602,45.1003173
09/05/2023,Torino,Barriera di Milano,via Francesco Cigna 118,89000,85,6,1,3,1,1960,Buono / Abitabile,7.6860267,45.0926327
09/05/2023,Torino,Barriera di Milano,corso Giulio Cesare,99000,125,4,1,5,1,1970,Buono / Abitabile,7.71119,45.1187164
09/05/2023,Torino,Rebaudengo,via Rocco Scotellaro 63,115000,90,0,0,4,1,1970,Buono / Abitabile,7.703156,45.1092801
09/05/2023,Torino,Rebaudengo,corso Vercelli 286,74000,74,8,1,3,1,1968,Buono / Abitabile,7.6983829,45.1116385
09/05/2023,Torino,Barriera di Milano,corso Giulio Cesare 81,54000,75,3,0,3,1,1930,,7.6915079,45.0891163
09/05/2023,Torino,Aurora,Palazzo - Edificio in Vendita,220000,360,3,0,1,1,1950,Buono / Abitabile,,
09/05/2023,Torino,Barriera di Milano,via Candia 7,26000,60,3,0,2,2,1980,Da ristrutturare,7.6965467,45.0896847
09/05/2023,Torino,Barriera di Milano,via Brandizzo,6750,29,3,0,2,1,1980,,7.694818,45.0921211
09/05/2023,Torino,Barriera di Milano,via largo Sempione,12000,46,0,0,3,1,1980,Buono / Abitabile,,
09/05/2023,Torino,Regio Parco,corso Giulio Cesare,9000,37,0,0,2,1,1980,Buono / Abitabile,7.71119,45.1187164
09/05/2023,Torino,Aurora,via Saint Bon 44,43000,40,4,0,2,1,1930,Buono / Abitabile,7.6818024,45.087634
08/05/2023,Torino,Rebaudengo,via Martorelli 92,129000,146,6,1,5,2,1967,Da ristrutturare,,
08/05/2023,Torino,Aurora,via Aosta 48,59900,58,6,1,2,1,1960,Buono / Abitabile,7.6919909,45.0856613
08/05/2023,Torino,Aurora,via Alessandria,63000,53,0,1,2,1,1957,Buono / Abitabile,7.7618189,45.1288349
08/05/2023,Torino,Barriera di Milano,via Giovanni Paisiello 10/37,55000,60,3,0,2,1,1950,Buono / Abitabile,7.6991458,45.0896087
07/05/2023,Torino,Aurora,via Bologna,227000,80,4,1,4,1,1980,Nuovo / In costruzione,7.7136261,45.0921271
07/05/2023,Torino,Aurora,via Cigna,177000,80,5,1,3,1,1980,Nuovo / In costruzione,7.6861968,45.0930802
07/05/2023,Torino,Aurora,via Alessandria,215000,90,4,0,4,1,1980,Nuovo / In costruzione,7.7618189,45.1288349
19/09/2022,Torino,Aurora,via Antonio Cecchi,176000,90,2,1,4,1,1980,Nuovo / In costruzione,7.6802712,45.0878802
08/05/2023,Torino,Aurora,via Bra,16477,43,2,0,4,2,1980,,7.6869788,45.0860567
08/05/2023,Torino,Barriera di Milano,via Brandizzo,18240,51,5,0,3,1,1980,,7.694818,45.0921211
08/05/2023,Torino,Rebaudengo,corso Vercelli,21000,44,0,0,3,1,1980,Buono / Abitabile,7.7082577,45.1182925
08/05/2023,Torino,Aurora,via Cigna,61950,73,0,0,4,1,1980,Buono / Abitabile,7.6861968,45.0930802
08/05/2023,Torino,Aurora,via Pinerolo,38775,59,1,1,3,1,1980,Buono / Abitabile,7.6877403,45.087615
08/05/2023,Torino,Aurora,corso Novara,31125,48,2,0,3,1,1980,Buono / Abitabile,7.6896379,45.088407
08/05/2023,Torino,Barriera di Milano,via Courmayeur,29250,34,0,0,3,1,1980,Buono / Abitabile,7.6876394,45.0906755
09/05/2023,Torino,Barriera di Milano,via Montanaro 27,45000,60,1,0,3,1,1950,Buono / Abitabile,7.6943743,45.0915551
07/05/2023,Torino,Aurora,via Clemente Damiano Priocca,240000,100,4,1,4,1,1935,Ottimo / Ristrutturato,7.6856949,45.0774546
08/05/2023,Torino,Aurora,corso Principe Oddone,204000,80,2,1,3,1,1980,Nuovo / In costruzione,7.6737377,45.0844289
08/05/2023,Torino,Aurora,via Cigna,192000,85,3,1,3,1,1980,Nuovo / In costruzione,7.6861968,45.0930802
06/05/2023,Torino,Aurora,corso Regio Parco 5/B,950000,238,9,1,5,3,2002,Ottimo / Ristrutturato,7.7150948,45.0930326
09/05/2023,Torino,Barriera di Milano,via rivarossa 6,124900,80,0,0,4,1,1940,Ottimo / Ristrutturato,7.6955286,45.0959087
08/05/2023,Torino,Aurora,corso Principe Oddone,222000,100,2,1,3,1,1980,Nuovo / In costruzione,7.6737377,45.0844289
06/05/2023,Torino,Barriera di Milano,via BELMONTE 10,29000,60,0,0,2,1,1940,Da ristrutturare,7.6887532,45.0933252
05/05/2023,Torino,Barriera di Milano,via Puccini 20,95000,82,5,1,5,1,1970,Buono / Abitabile,7.6649148,45.0149582
05/05/2023,Torino,Aurora,via camino 16,54000,50,6,1,2,1,1960,Buono / Abitabile,7.6905807,45.084824
05/05/2023,Torino,Barriera di Milano,via Giovanni Paisiello 10,49900,55,3,0,2,1,1960,Ottimo / Ristrutturato,7.6992666,45.0890321
05/05/2023,Torino,Barriera di Milano,via Brandizzo 27,59000,70,3,1,3,1,1980,Ottimo / Ristrutturato,7.6974547,45.091555
05/05/2023,Torino,Rebaudengo,piazza Conti di Rebaudengo 3/25,124900,90,3,1,4,1,1960,Ottimo / Ristrutturato,7.6955841,45.102463
09/05/2023,Torino,Barriera di Milano,via Renato Martorelli 51,160000,80,0,0,1,1,1940,Da ristrutturare,7.6936997,45.0963099
05/05/2023,Torino,Barriera di Milano,via Rondissone,62000,75,4,1,3,1,1980,Da ristrutturare,7.6910097,45.0971544
04/05/2023,Torino,Aurora,via Aosta 16,105000,45,4,1,2,1,1970,Ottimo / Ristrutturato,7.6900292,45.0826652
04/05/2023,Torino,Aurora,corso Emilia,48000,50,4,0,2,1,1980,Buono / Abitabile,7.6866914,45.0832965
04/05/2023,Torino,Barriera di Milano,via Leinì 52,65000,73,1,0,5,2,1960,Buono / Abitabile,7.6919123,45.0929753
04/05/2023,Torino,Barriera di Milano,via Cherubini,79000,70,2,0,3,1,1980,Buono / Abitabile,7.7017603,45.0928133
04/05/2023,Torino,Barriera di Milano,via Scarlatti,59000,58,0,0,2,1,1980,,7.6940813,45.0908232
04/05/2023,Torino,Barriera di Milano,via Renato Martorelli 26,39000,55,5,0,2,1,1940,Buono / Abitabile,7.6938369,45.0945505
03/05/2023,Torino,Barriera di Milano,via Vestignè 4,158000,119,2,0,3,1,1920,Buono / Abitabile,7.6929323,45.0932145
08/05/2023,Torino,Rebaudengo,via Rocco Scotellaro 67,148000,106,0,1,4,2,1970,Ottimo / Ristrutturato,7.7032457,45.1096571
05/05/2023,Torino,Aurora,via Francesco Cigna 41,118000,74,6,1,2,1,1980,,7.6795024,45.0837965
05/05/2023,Torino,Barriera di Milano,piazza Domenico Cimarosa 45,190000,110,7,1,4,1,1980,Ottimo / Ristrutturato,7.7075107,45.0880558
02/05/2023,Torino,Aurora,corso Emilia 30,79000,80,3,1,3,1,1980,Buono / Abitabile,7.6819716,45.0849583
02/05/2023,Torino,Barriera di Milano,via Ruggero Leoncavallo 45,199000,130,8,1,4,2,1950,Ottimo / Ristrutturato,7.7004018,45.086882
02/05/2023,Torino,Barriera di Milano,via Luigi Salvatore Cherubini 20,30900,55,5,0,2,1,1970,Buono / Abitabile,7.6969144,45.0925853
09/05/2023,Torino,Aurora,corso Brescia 28,149000,91,4,1,3,1,1980,Buono / Abitabile,7.6902019,45.0819909
04/05/2023,Torino,Aurora,corso Emilia 30,129000,81,2,1,3,1,1950,Ottimo / Ristrutturato,7.6819716,45.0849583
01/05/2023,Torino,Aurora,corso Principe Oddone 50,72000,68,2,1,2,1,1930,Ottimo / Ristrutturato,7.6737389,45.083684
08/05/2023,Torino,Barriera di Milano,via Desana,191000,85,5,1,3,1,1980,Nuovo / In costruzione,7.6907105,45.0964957
08/05/2023,Torino,Barriera di Milano,via Alessandro Scarlatti,166000,75,4,1,3,1,1980,Nuovo / In costruzione,7.6940813,45.0908232
08/05/2023,Torino,Aurora,largo Brescia,205000,75,2,1,3,1,1980,Nuovo / In costruzione,7.6928166,45.0812434
08/05/2023,Torino,Aurora,Strada Del Fortino,158000,70,2,1,3,1,1980,Nuovo / In costruzione,7.6799193,45.0842771
08/05/2023,Torino,Barriera di Milano,via Renato Martorelli,209000,95,2,1,3,1,1980,Nuovo / In costruzione,7.6938308,45.0961632
02/05/2023,Torino,Barriera di Milano,via sempione 160,47900,55,0,1,2,1,1970,,7.6987858,45.0965436
29/04/2023,Torino,Barriera di Milano,via Pier Fortunato Calvi 16,38000,55,1,1,2,1,1980,,7.6971229,45.0954276
04/05/2023,Torino,Aurora,via Bognanco 5,125000,71,1,1,3,1,1900,Ottimo / Ristrutturato,7.6789143,45.0840799
08/05/2023,Torino,Aurora,via Salerno 5,157000,90,2,1,4,1,1924,Buono / Abitabile,7.6741531,45.080553
05/05/2023,Torino,Barriera di Milano,via Lauro Rossi 77,48000,55,2,1,2,1,1955,Da ristrutturare,7.6871925,45.0972525
28/04/2023,Torino,Barriera di Milano,corso Giulio Cesare 160,79000,66,3,0,3,1,1940,Ottimo / Ristrutturato,7.6966698,45.0964417
09/05/2023,Torino,Rebaudengo,corso Vercelli 226,99000,93,5,1,3,1,1965,Buono / Abitabile,7.6972446,45.1072168
28/04/2023,Torino,Barriera di Milano,via Enrico Cavaglià 8,25000,40,0,0,2,1,1960,Buono / Abitabile,7.6948528,45.0971982
02/05/2023,Torino,Barriera di Milano,via Aosta 64,165000,110,9,1,4,1,1962,Ottimo / Ristrutturato,7.6938442,45.0867416
27/04/2023,Torino,Aurora,via Aosta 41,109000,78,1,1,3,1,1960,Ottimo / Ristrutturato,7.6921432,45.0860843
27/04/2023,Torino,Barriera di Milano,via Montanaro 50,79900,80,2,1,3,1,1970,Buono / Abitabile,7.6951984,45.0930404
28/04/2023,Torino,Barriera di Milano,corso Novara 47,40000,80,7,1,3,1,1955,Buono / Abitabile,7.6954923,45.0855452
27/04/2023,Torino,Regio Parco,corso Giulio Cesare,115000,85,5,0,2,1,1980,Buono / Abitabile,7.71119,45.1187164
27/04/2023,Torino,Barriera di Milano,via Monte Rosa 28,54900,50,2,0,3,1,1940,Buono / Abitabile,7.6942606,45.0883703
03/05/2023,Torino,Barriera di Milano,piazza Francesco Crispi 58,38000,47,3,0,2,1,1940,Buono / Abitabile,7.6891361,45.0896169
03/05/2023,Torino,Barriera di Milano,via Baltea 10,54900,78,0,0,3,1,1960,Buono / Abitabile,7.6907236,45.0909511
04/05/2023,Torino,Barriera di Milano,via Fossata 24,48000,50,3,0,2,1,1925,Buono / Abitabile,7.6880257,45.09391
26/04/2023,Torino,Rebaudengo,corso Giulio Cesare 205,55000,60,6,1,2,1,1970,Da ristrutturare,7.6990155,45.100603
26/04/2023,Torino,Rebaudengo,corso Giulio Cesare 299,165000,150,2,1,5,2,1965,Buono / Abitabile,7.7032719,45.1074142
26/04/2023,Torino,Barriera di Milano,via Sempione 78,85000,95,4,0,4,1,1950,Ottimo / Ristrutturato,7.6915941,45.0993917
04/05/2023,Torino,Rebaudengo,corso Vercelli 181,95000,95,8,1,4,1,1970,Da ristrutturare,7.693697,45.100741
27/04/2023,Torino,Quadrilatero Romano,via delle orfane 29,39000,18,4,0,1,1,1980,Ottimo / Ristrutturato,7.6804594,45.0773305
26/04/2023,Torino,Barriera di Milano,via Malone 27,59000,78,1,0,3,2,1907,Buono / Abitabile,7.6942499,45.0890035
25/04/2023,Torino,Barriera di Milano,via Malone 27,39000,35,1,0,2,1,1907,Buono / Abitabile,7.6942499,45.0890035
09/05/2023,Torino,Rebaudengo,piazza Conti di Rebaudengo 12,49000,50,3,1,2,1,1960,Buono / Abitabile,7.6958628,45.102839
24/04/2023,Torino,Aurora,via Antonio Cecchi 56,105000,92,1,1,3,1,1950,Ottimo / Ristrutturato,7.6800671,45.0882194
27/04/2023,Torino,Barriera di Milano,via Brandizzo,65000,75,1,1,3,1,1980,Buono / Abitabile,7.694818,45.0921211
08/05/2023,Torino,Aurora,corso Brescia,250000,90,3,1,3,1,1980,Nuovo / In costruzione,7.6876955,45.0829615
09/05/2023,Torino,Barriera di Milano,via Renato Martorelli 24,20000,25,0,0,1,1,1980,,7.6938275,45.0944114
27/04/2023,Torino,Aurora,via Vittorio Andreis 18//6,129000,70,1,1,3,1,1960,Buono / Abitabile,7.6805352,45.0805274
26/04/2023,Torino,Aurora,via Carlo Antonio Porporati 8,89000,45,4,1,2,1,1950,Buono / Abitabile,7.686804,45.0784216
26/04/2023,Torino,Aurora,Strada del Fortino 19,59000,60,3,0,3,1,1950,Da ristrutturare,7.6807124,45.0836399
03/05/2023,Torino,Barriera di Milano,via Baltea 10,33000,50,0,0,2,1,1950,Da ristrutturare,7.6907236,45.0909511
27/04/2023,Torino,Barriera di Milano,corso GIULIO CESARE  122,99000,110,5,1,4,1,1930,Buono / Abitabile,7.694538,45.0931846
03/05/2023,Torino,Barriera di Milano,via Baltea 16,59000,50,2,0,2,1,1940,Buono / Abitabile,7.6911999,45.090837
21/04/2023,Torino,Barriera di Milano,via Alessandro Scarlatti 31,59000,65,0,1,2,1,1970,Buono / Abitabile,7.6975578,45.0900572
21/04/2023,Torino,Aurora,Loft via Parma 11,98000,65,0,1,2,1,1950,Buono / Abitabile,,
03/05/2023,Torino,Aurora,via Parma 11,122000,75,3,1,3,1,1950,Buono / Abitabile,7.6907418,45.0809534
03/05/2023,Torino,Aurora,via Parma 11,125000,80,2,1,3,1,1950,Buono / Abitabile,7.6907418,45.0809534
03/05/2023,Torino,Aurora,via Parma 11,111000,81,1,1,3,1,1950,Buono / Abitabile,7.6907418,45.0809534
21/04/2023,Torino,Aurora,via Parma 11,126000,70,1,1,2,1,1950,Buono / Abitabile,7.6907418,45.0809534
21/04/2023,Torino,Aurora,via Parma 11,95000,60,2,1,2,1,1950,Buono / Abitabile,7.6907418,45.0809534
21/04/2023,Torino,Aurora,via Parma 11,90000,59,0,1,2,1,1950,Buono / Abitabile,7.6907418,45.0809534
28/04/2023,Torino,Barriera di Milano,via Jacopo Foroni 7,54900,75,2,0,3,1,1940,Buono / Abitabile,7.6956269,45.0895553
06/05/2023,Torino,Rebaudengo,via Nicola Porpora 29/12,82000,82,2,0,3,1,1955,Buono / Abitabile,7.696602,45.1003173
28/04/2023,Torino,Aurora,Lungo Dora Agrigento 77,120000,75,6,1,2,1,1960,Buono / Abitabile,7.6793131,45.0852797
02/05/2023,Torino,Barriera di Milano,via Candia 19,38000,47,4,0,2,1,1950,Buono / Abitabile,7.6976037,45.0894278
08/05/2023,Torino,Barriera di Milano,via Soana 17/d,120000,58,1,0,2,1,1901,Ottimo / Ristrutturato,7.6902981,45.0908546
06/05/2023,Torino,Barriera di Milano,via Lauro Rossi 39.,78000,98,1,1,4,1,1980,Da ristrutturare,7.6905189,45.0957094
26/04/2023,Torino,Barriera di Milano,corso Giulio Cesare 148,89000,75,6,1,3,1,1930,Buono / Abitabile,7.6960614,45.0955141
21/04/2023,Torino,Aurora,via Parma 11,97000,60,3,1,2,1,1950,Buono / Abitabile,7.6907418,45.0809534
20/04/2023,Torino,Barriera di Milano,via Girolamo Frescobaldi 6,62900,40,1,1,2,1,2008,,7.6955917,45.0859691
20/04/2023,Torino,Barriera di Milano,corso Vercelli 144,69900,70,1,0,3,1,1940,Buono / Abitabile,7.6927717,45.0978861
21/04/2023,Torino,Barriera di Milano,via Valprato 52,199000,93,1,1,3,2,2006,Ottimo / Ristrutturato,7.6843418,45.0928952
21/04/2023,Torino,Rebaudengo,via Nicola Porpora 29/18,43000,45,0,1,2,1,1960,Da ristrutturare,7.696602,45.1003173
26/04/2023,Torino,Aurora,corso Regina Margherita 102,290000,148,1,1,5,1,1915,Da ristrutturare,7.689299,45.0750739
27/04/2023,Torino,Aurora,corso Novara 10,115000,92,3,0,4,2,1940,Buono / Abitabile,7.6898721,45.0879767
28/04/2023,Torino,Barriera di Milano,via Monte Rosa 81,45000,45,6,1,2,1,1960,Da ristrutturare,7.495167722799426,45.07637875
18/04/2023,Torino,Aurora,via Cardinale Gaetano Alimonda 5,139000,90,1,1,4,1,1940,Buono / Abitabile,7.6901301,45.0854613
18/04/2023,Torino,Barriera di Milano,via Giovanni Pierluigi da Palestrina 46,34000,41,3,0,2,1,1940,Da ristrutturare,,
21/04/2023,Torino,Barriera di Milano,via Giovanni Pierluigi da Palestrina 46,65000,85,3,0,4,2,1980,Da ristrutturare,,
18/04/2023,Torino,Aurora,largo Brescia 47,138000,83,2,1,3,1,1960,Ottimo / Ristrutturato,7.6925689,45.0815678
19/04/2023,Torino,Rebaudengo,via campobasso 10,95000,80,0,1,3,1,1970,Buono / Abitabile,7.6982629,45.1083662
18/04/2023,Torino,Barriera di Milano,via Giovanni Pierluigi da Palestrina 46,99000,85,0,0,4,1,1940,Ottimo / Ristrutturato,,
18/04/2023,Torino,Rebaudengo,corso Vercelli 278,115000,87,2,1,3,1,1992,Buono / Abitabile,7.6982562,45.1111449
17/04/2023,Torino,Barriera di Milano,via Giovanni Paisiello 49,48000,60,2,1,2,1,1950,Buono / Abitabile,7.7025719,45.0923367
08/05/2023,Torino,Barriera di Milano,corso Vercelli 121,65000,65,2,0,3,1,1950,Buono / Abitabile,7.6915492,45.0959026
17/04/2023,Torino,Barriera di Milano,Terratetto plurifamiliare via Leinì 19,290000,280,0,0,5,1,1940,Buono / Abitabile,,
17/04/2023,Torino,Aurora,via Borgo Dora 4,149000,65,2,1,2,1,1945,Buono / Abitabile,7.6841733,45.0787492
27/04/2023,Torino,Barriera di Milano,via Gaspare Spontini 8,29000,40,3,0,2,1,1960,Da ristrutturare,7.6965455,45.0939308
17/04/2023,Torino,Barriera di Milano,plurifamiliare via Leinì 19,290000,280,0,0,5,1,1940,Buono / Abitabile,,
20/04/2023,Torino,Barriera di Milano,corso Giulio Cesare 118,49900,60,3,1,3,1,1940,Da ristrutturare,7.6944058,45.0929813
15/04/2023,Torino,Rebaudengo,via Nicola Porpora 26,49900,50,2,1,2,1,1950,Da ristrutturare,7.6971561,45.0994432
15/04/2023,Torino,Rebaudengo,via Nicola Porpora 26,49900,50,2,1,2,1,1950,Da ristrutturare,7.6971561,45.0994432
18/04/2023,Torino,Aurora,corso Regio Parco,98000,40,0,0,2,1,1960,Buono / Abitabile,7.6921603,45.0759518
18/04/2023,Torino,Barriera di Milano,via Brandizzo 98,48900,55,4,1,2,1,1970,,7.7032051,45.0900408
06/05/2023,Torino,Barriera di Milano,via Santhià 91,74800,50,2,0,2,1,1970,,7.6993898,45.0949779
29/04/2023,Torino,Barriera di Milano,via Monte Rosa 44,68000,72,1,0,3,1,1930,Buono / Abitabile,7.6948528,45.0895944
14/04/2023,Torino,Barriera di Milano,via Antonio Vivaldi 4,39900,54,3,0,2,1,1955,Buono / Abitabile,7.7014366,45.0919891
21/04/2023,Torino,Barriera di Milano,via Bologna 97,89000,70,4,0,3,1,1980,Buono / Abitabile,7.7004168,45.084834
14/04/2023,Torino,Regio Parco,corso Giulio Cesare 180,99000,75,2,0,3,1,1910,Buono / Abitabile,7.69763,45.0979121
26/04/2023,Torino,Regio Parco,corso Giulio Cesare 180A,46000,82,5,0,3,1,1940,Buono / Abitabile,7.6975646,45.0978096
14/04/2023,Torino,Barriera di Milano,via Desana 19,43000,54,2,0,2,1,1940,Buono / Abitabile,7.6894882,45.0967268
14/04/2023,Torino,Rebaudengo,piazza Derna 231,520000,900,3,1,5,1,1993,Ottimo / Ristrutturato,7.6997484,45.1037409
21/04/2023,Torino,Barriera di Milano,via Valprato 56/4,300000,147,5,1,5,2,2011,Nuovo / In costruzione,7.6851072,45.0933936
13/04/2023,Torino,Barriera di Milano,via Gaspare Spontini 27,29000,48,0,0,2,1,1950,Buono / Abitabile,7.6980617,45.0936255
18/04/2023,Torino,Barriera di Milano,via Luigi Salvatore Cherubini 10,39900,59,4,1,2,1,1970,Buono / Abitabile,7.695436,45.0925445
17/04/2023,Torino,Barriera di Milano,via Feletto 35,55000,38,2,1,2,1,1950,Ottimo / Ristrutturato,7.6939324,45.0918717
14/04/2023,Torino,Barriera di Milano,via Giovanni Paisiello 12,34000,40,2,0,1,1,1960,Buono / Abitabile,7.6988904,45.0892626
12/04/2023,Torino,Aurora,via Beinasco 7,79000,75,2,0,3,1,1977,Buono / Abitabile,7.6803824,45.0862577
12/04/2023,Torino,Aurora,corso Vercelli 28,43900,50,3,0,2,1,1870,Buono / Abitabile,7.6872411,45.0866091
13/04/2023,Torino,Aurora,Strada del Fortino 27,69000,75,4,0,3,1,1930,Buono / Abitabile,7.6792959,45.0845167
18/04/2023,Torino,Aurora,via Pisa 18,1030000,268,4,1,5,1,2023,Nuovo / In costruzione,7.6917883,45.0781771
18/04/2023,Torino,Aurora,via Pisa 18,799000,209,4,1,4,1,2023,Nuovo / In costruzione,7.6917883,45.0781771
12/04/2023,Torino,Aurora,via Piossasco 11/4,105000,103,2,1,4,1,1960,Da ristrutturare,7.5130731,45.0239083
29/04/2023,Torino,Barriera di Milano,via Luigi Salvatore Cherubini 6,42000,56,6,1,2,1,1957,Buono / Abitabile,7.6951271,45.092536
12/04/2023,Torino,Barriera di Milano,via Gaspare Spontini 6,85000,77,1,0,3,1,1952,Ottimo / Ristrutturato,7.6963096,45.094
18/04/2023,Torino,San Donato,corso Principe Eugenio 4,199000,114,1,1,4,1,1900,Ottimo / Ristrutturato,7.6748297,45.0790528
18/04/2023,Torino,Aurora,via Pisa 18,899000,236,4,1,5,1,2023,Nuovo / In costruzione,7.6917883,45.0781771
26/04/2023,Torino,Rebaudengo,via Alessandrina Ravizza 7,35000,40,1,0,2,1,1950,Da ristrutturare,7.695516,45.0995323
18/04/2023,Torino,Aurora,via Pisa 18,249000,73,2,1,2,1,2023,Nuovo / In costruzione,7.6917883,45.0781771
18/04/2023,Torino,Aurora,via Pisa 18,349000,96,2,1,2,1,2023,Nuovo / In costruzione,7.6917883,45.0781771
18/04/2023,Torino,Aurora,via Pisa 18,189000,52,2,1,1,1,2023,Nuovo / In costruzione,7.6917883,45.0781771
17/04/2023,Torino,Barriera di Milano,via Rivarossa,55000,50,1,0,2,1,1980,Ottimo / Ristrutturato,7.7225365,45.2650118
20/04/2023,Torino,Barriera di Milano,via candia 9/B,59900,50,3,0,2,1,1980,,7.6967316,45.0896401
14/04/2023,Torino,Barriera di Milano,via Giovanni Paisiello 69,119000,105,2,1,3,1,1980,Da ristrutturare,7.7041749,45.0942289
15/04/2023,Torino,Barriera di Milano,via Renato Martorelli 29,54000,67,4,0,3,1,1940,Buono / Abitabile,7.6936224,45.0951474
13/04/2023,Torino,Barriera di Milano,piazza Giovanni Bottesini 15,79000,78,2,1,3,1,1969,Buono / Abitabile,7.6985164,45.0884182
07/04/2023,Torino,Rebaudengo,via Vistrorio 99,115000,87,2,1,4,1,1995,Ottimo / Ristrutturato,7.7014912,45.1109491
24/04/2023,Torino,Aurora,via Lodi,79000,55,4,1,2,1,1960,Buono / Abitabile,7.6888222,45.0847038
15/04/2023,Torino,Barriera di Milano,via Lauro Rossi 34,48000,48,0,0,2,1,1900,Ottimo / Ristrutturato,7.6906419,45.0958181
18/04/2023,Torino,Aurora,corso Principe Oddone 64,279000,115,2,1,5,2,1930,Buono / Abitabile,7.674925,45.0853778
05/04/2023,Torino,Barriera di Milano,via Alessandro Scarlatti 23,30000,40,3,0,2,1,1958,Buono / Abitabile,7.6967464,45.0902517
13/04/2023,Torino,Aurora,corso Brescia 4,94000,90,4,0,4,1,1900,Buono / Abitabile,7.6882348,45.0826431
20/04/2023,Torino,Aurora,corso Giulio Cesare 59,29900,50,3,0,2,1,1950,Buono / Abitabile,7.6898727,45.086614
20/04/2023,Torino,Aurora,corso Giulio Cesare 59,25900,42,3,0,2,1,1950,Da ristrutturare,7.6898727,45.086614
13/04/2023,Torino,Aurora,via Cuneo 49,135000,85,5,1,3,1,1960,Ottimo / Ristrutturato,7.6803324,45.0866073
21/04/2023,Torino,Barriera di Milano,via Antonio Banfo 50,29000,40,1,0,2,1,1940,Da ristrutturare,7.6874745,45.0930104
05/04/2023,Torino,Barriera di Milano,corso Giulio Cesare 173,69000,80,3,1,4,1,1930,Buono / Abitabile,7.6967993,45.0972108
05/04/2023,Torino,Aurora,corso Giulio Cesare 59,34900,45,3,0,2,1,1900,Buono / Abitabile,7.6898727,45.086614
04/04/2023,Torino,Barriera di Milano,corso Palermo,55000,85,1,0,3,1,1967,Da ristrutturare,7.6930508,45.0846421
08/05/2023,Torino,Barriera di Milano,via Pont 7,29000,50,0,0,2,1,1930,Buono / Abitabile,7.6798842,45.0911072
04/04/2023,Torino,Aurora,via Francesco Cigna 64,75000,50,1,1,2,1,1966,Ottimo / Ristrutturato,7.681798,45.0865373
05/04/2023,Torino,Barriera di Milano,via Feletto 35,55000,45,2,1,2,1,1900,Ottimo / Ristrutturato,7.6939324,45.0918717
12/04/2023,Torino,Barriera di Milano,via Alessandro Scarlatti 60,55000,61,2,0,3,1,1940,Buono / Abitabile,7.6997733,45.0893839
06/05/2023,Torino,Barriera di Milano,via Niccolò Paganini 42,89900,90,1,0,4,1,1940,,7.7043142,45.0874245
03/04/2023,Torino,Aurora,corso Novara 38,95000,87,3,1,3,1,1957,Buono / Abitabile,7.6925843,45.0864301
08/04/2023,Torino,Aurora,corso Principe Oddone 38,129000,120,1,0,5,1,1930,Da ristrutturare,7.6728867,45.0824637
21/04/2023,Torino,Aurora,via Cuneo 2,125000,72,3,1,3,1,2000,Buono / Abitabile,7.7391051,44.9769129
03/04/2023,Torino,Barriera di Milano,via Gaspare Spontini 6,63000,85,1,0,3,1,1960,Buono / Abitabile,7.6963096,45.094
22/04/2023,Torino,Rebaudengo,via Gottardo 51,79900,85,7,1,3,1,1970,Buono / Abitabile,7.6926955,45.0999713
19/04/2023,Torino,Aurora,via Gianfrancesco Fiochetto 1,120000,105,1,1,5,2,1980,Da ristrutturare,7.6859489,45.0769009
07/04/2023,Torino,Aurora,ottimo stato,290000,150,1,0,5,2,1900,Ottimo / Ristrutturato,,
06/05/2023,Torino,Barriera di Milano,via mercadante 74,189000,115,2,1,4,2,1970,Buono / Abitabile,7.70192633808144,45.0940502
18/04/2023,Torino,Barriera di Milano,via Bologna 93,79900,75,2,1,3,1,1960,Buono / Abitabile,7.6998251,45.0845292
01/04/2023,Torino,Aurora,via Antonio Cecchi,63000,65,3,1,3,1,1950,Buono / Abitabile,7.6802712,45.0878802
07/05/2023,Torino,Barriera di Milano,via Soana,120000,58,1,0,2,1,2016,Ottimo / Ristrutturato,7.6905024,45.0911209
09/05/2023,Torino,Aurora,corso Giulio Cesare 58,119000,114,7,1,4,1,1960,Buono / Abitabile,7.6906896,45.0868796
03/04/2023,Torino,Rebaudengo,via Gottardo 37,104000,90,2,1,3,1,1965,Ottimo / Ristrutturato,7.6920126,45.1005112
03/04/2023,Torino,Aurora,via San Giovanni Battista la Salle 16,39000,48,1,0,2,1,1900,Da ristrutturare,7.6870151,45.0801
31/03/2023,Torino,Barriera di Milano,via Giovanni Duprè 24,65000,60,2,0,2,1,1960,Buono / Abitabile,7.7000326,45.093438
31/03/2023,Torino,Aurora,Palazzo - Edificio in Vendita,690000,800,1,0,5,1,1990,Ottimo / Ristrutturato,,
09/05/2023,Torino,Barriera di Milano,via Lauro Rossi 57,37000,40,0,0,2,1,1950,Buono / Abitabile,7.6887412,45.0962342
06/05/2023,Torino,Barriera di Milano,via Renato Martorelli 84,79000,75,1,0,3,1,1933,Ottimo / Ristrutturato,7.6940921,45.0983149
04/04/2023,Torino,Barriera di Milano,via Chatillon 9,28000,40,1,0,3,1,1980,Da ristrutturare,7.6893314,45.0937931
04/04/2023,Torino,Barriera di Milano,via Fossata,89900,55,3,1,2,1,1955,Ottimo / Ristrutturato,7.6853384,45.0991005
30/03/2023,Torino,Barriera di Milano,via Salassa 14,79000,80,5,0,3,1,1950,Buono / Abitabile,7.6950835,45.0967584
31/03/2023,Torino,Barriera di Milano,via Alessandro Scarlatti 62,94000,60,3,1,2,1,2003,Ottimo / Ristrutturato,7.6999455,45.0893426
30/03/2023,Torino,Aurora,via Antonio Cecchi 60,63000,65,3,1,2,1,1950,Buono / Abitabile,7.6797936,45.0885036
30/03/2023,Torino,Rebaudengo,via Botticelli,59000,60,3,1,2,1,1980,Buono / Abitabile,7.7061316,45.1027877
30/03/2023,Torino,Barriera di Milano,Loft piazza Francesco Crispi,79000,108,0,0,7,1,1980,,,
30/03/2023,Torino,Barriera di Milano,via mercadante 74,219900,150,1,1,5,2,1970,Nuovo / In costruzione,7.70192633808144,45.0940502
03/05/2023,Torino,Barriera di Milano,corso Giulio Cesare 60,210000,110,6,1,4,2,1930,Buono / Abitabile,7.6911659,45.0880251
15/04/2023,Torino,Rebaudengo,via Federico Patetta,59000,60,0,0,2,1,1970,Buono / Abitabile,7.6978033,45.104373
03/04/2023,Torino,Aurora,corso Giulio Cesare 45,60000,40,0,1,2,1,2023,Nuovo / In costruzione,7.6888713,45.0850786
30/03/2023,Torino,Barriera di Milano,via Amilcare Ponchielli 26,129000,130,1,1,4,2,1978,Buono / Abitabile,7.7018592,45.0869375
12/04/2023,Torino,Rebaudengo,via Nicola Porpora 39,89000,78,3,1,3,1,1960,Buono / Abitabile,7.6981117,45.1002485
05/05/2023,Torino,Aurora,via Bologna 56,129000,56,2,0,2,1,2006,Ottimo / Ristrutturato,7.694801866230046,45.0819952
28/03/2023,Torino,Aurora,via aosta 15,83000,80,4,0,3,1,1950,Buono / Abitabile,7.6899821,45.0829131
03/05/2023,Torino,Aurora,via Pesaro 34,127000,82,3,1,3,1,1980,Ottimo / Ristrutturato,7.6787526,45.0835937
03/04/2023,Torino,Barriera di Milano,via Alberto Viriglio 40,95000,80,3,0,3,1,1956,Ottimo / Ristrutturato,7.7041137,45.0915091
02/05/2023,Torino,Aurora,via Vittorio Andreis 3,433000,173,3,1,5,3,1935,Ottimo / Ristrutturato,7.6843038,45.079225
13/04/2023,Torino,Barriera di Milano,via Giovanni Paisiello 17,69900,80,2,1,3,1,1980,Buono / Abitabile,7.6997478,45.0901849
27/03/2023,Torino,Barriera di Milano,corso Giulio Cesare 77,53000,50,5,1,2,1,1950,Da ristrutturare,7.6913401,45.0888593
27/03/2023,Torino,Aurora,corso Emilia 31,39000,49,4,0,2,1,1960,Buono / Abitabile,7.6831363,45.0843523
14/04/2023,Torino,Aurora,corso Giulio Cesare 20,219000,108,1,1,4,1,1900,,7.6875617,45.0823231
25/04/2023,Torino,Aurora,via Antonio Cecchi 44,155000,136,1,0,5,2,1960,Da ristrutturare,7.6809643,45.0872685
27/03/2023,Torino,Rebaudengo,via Luigi Boccherini 1,110000,75,1,1,3,1,1960,Da ristrutturare,7.6968767,45.0997888
21/04/2023,Torino,Aurora,corso Palermo 83,79000,50,7,1,2,1,1970,Ottimo / Ristrutturato,7.6930039,45.0858827
08/05/2023,Torino,Barriera di Milano,via Brandizzo,188000,80,4,1,3,1,1980,Nuovo / In costruzione,7.694818,45.0921211
08/05/2023,Torino,Aurora,via Bergamo,162000,70,4,1,3,1,1980,Nuovo / In costruzione,7.7828586,45.1490104
12/04/2023,Torino,Barriera di Milano,corso Giulio Cesare 81,48000,80,5,0,4,1,1950,Buono / Abitabile,7.6915079,45.0891163
18/04/2023,Torino,Rebaudengo,piazza conti di rebaudengo 21,109500,75,5,1,3,1,1960,Buono / Abitabile,7.6949024,45.1041091
25/03/2023,Torino,Barriera di Milano,via Ruggero Leoncavallo 45,229000,166,9,1,5,2,1980,Buono / Abitabile,7.7004018,45.086882
19/04/2023,Torino,Barriera di Milano,via ozegna 8,44900,45,1,0,2,1,1940,Da ristrutturare,7.6947189,45.0951258
07/05/2023,Torino,Barriera di Milano,via Paolo Ferrari,160000,70,2,0,3,1,1980,,7.7018124,45.0854683
08/05/2023,Torino,Barriera di Milano,via Giovanni Paisiello,60000,57,3,0,2,1,1980,,7.6991458,45.0896087
01/04/2023,Torino,Rebaudengo,via Rocco Scotellaro 35,115000,100,2,1,4,1,1970,Buono / Abitabile,7.7025981,45.107395
25/03/2023,Torino,Barriera di Milano,corso Giulio Cesare 162,28900,45,3,0,2,1,1930,Buono / Abitabile,7.6967364,45.0965421
13/04/2023,Torino,Aurora,via Francesco Cigna 70,124000,80,0,1,3,1,1970,Ottimo / Ristrutturato,7.6820419,45.0868782
24/03/2023,Torino,Barriera di Milano,via Monte Rosa  79,59000,74,1,0,3,1,1950,Buono / Abitabile,7.6962849,45.0922939
06/04/2023,Torino,Aurora,via Antonio Cecchi 56,89000,63,2,1,2,1,1970,Ottimo / Ristrutturato,7.6800671,45.0882194
07/04/2023,Torino,Barriera di Milano,Terratetto unifamiliare via Paisiello 56,1300000,803,3,0,5,1,1900,Buono / Abitabile,,
24/03/2023,Torino,Barriera di Milano,via Candia 9,42000,50,3,0,3,1,1980,Ottimo / Ristrutturato,7.6966628,45.0896567
24/03/2023,Torino,Rebaudengo,via Cogne 40,105000,87,5,1,3,1,1980,,7.6998651,45.1081302
06/05/2023,Torino,Barriera di Milano,buono stato,32000,50,1,0,2,1,1980,Buono / Abitabile,,
28/03/2023,Torino,Aurora,corso Giulio Cesare 58,50000,65,3,1,2,1,1960,Da ristrutturare,7.6906896,45.0868796
29/04/2023,Torino,Barriera di Milano,via Renato Martorelli 79,69900,60,3,0,3,1,1960,Buono / Abitabile,7.6938233,45.0981949
05/05/2023,Torino,Aurora,corso Regina Margherita 134,79000,70,1,0,3,1,1980,Da ristrutturare,7.6817624,45.0775795
30/03/2023,Torino,Barriera di Milano,corso Giulio Cesare 136/A,42000,55,5,0,2,1,1930,Buono / Abitabile,7.6870454,45.0819602
23/03/2023,Torino,Aurora,via Como 3,50000,45,2,0,2,1,1980,Buono / Abitabile,7.6933593,45.0836399
23/03/2023,Torino,Barriera di Milano,via Monterosa,49000,50,1,0,2,1,1980,Da ristrutturare,7.7640946,45.2023838
03/04/2023,Torino,Barriera di Milano,via MONTEROSA 127,44900,50,2,0,2,1,1950,,7.7640946,45.2023838
22/03/2023,Torino,Aurora,corso Brescia 4,69000,65,0,0,3,1,1900,Buono / Abitabile,7.6882348,45.0826431
14/04/2023,Torino,Aurora,via Clemente Damiano Priocca 2,139000,84,2,1,4,1,1930,Buono / Abitabile,7.6856263,45.0771258
22/03/2023,Torino,Barriera di Milano,via Monte Rosa  135,400,50,0,0,2,1,1980,Ottimo / Ristrutturato,7.6988502,45.0961941
22/03/2023,Torino,Aurora,corso Giulio Cesare 30,23000,25,0,0,1,1,1980,Da ristrutturare,7.6884558,45.083879
08/05/2023,Torino,Barriera di Milano,via Monte Rosa  135,400,50,0,0,2,1,1965,Ottimo / Ristrutturato,7.6988502,45.0961941
04/05/2023,Torino,Rebaudengo,corso Vercelli 185,125000,98,1,1,4,2,1965,Ottimo / Ristrutturato,7.6937279,45.1008773
24/03/2023,Torino,Rebaudengo,piazza Conti di Rebaudengo 3/16,128000,100,3,0,5,1,1950,Ottimo / Ristrutturato,7.6955841,45.102463
29/03/2023,Torino,Barriera di Milano,via Renato Martorelli,65000,56,0,0,3,1,1965,Buono / Abitabile,7.6938308,45.0961632
23/03/2023,Torino,Rebaudengo,piazza Conti di Rebaudengo 3/26,115000,97,2,1,4,1,1950,Da ristrutturare,7.6955841,45.102463
29/03/2023,Torino,Barriera di Milano,via Monte Rosa 14,88000,95,1,0,5,1,1930,Buono / Abitabile,7.6938157,45.0874386
05/04/2023,Torino,Aurora,corso Regina Margherita 134,209000,129,3,0,5,1,1980,Ottimo / Ristrutturato,7.6817624,45.0775795
21/03/2023,Torino,Aurora,Loft via Cremona,220000,340,3,0,2,3,1960,Buono / Abitabile,,
05/04/2023,Torino,Aurora,corso Regina Margherita 134,149000,77,3,0,3,1,1980,,7.6817624,45.0775795
05/04/2023,Torino,Aurora,corso Regina Margherita 134,75000,30,4,0,2,1,1980,,7.6817624,45.0775795
24/03/2023,Torino,Aurora,via Masserano 2,320000,124,1,1,3,2,1939,Ottimo / Ristrutturato,7.6733947,45.0804279
04/04/2023,Torino,Barriera di Milano,via Renato Martorelli,114000,95,2,0,4,2,1900,Ottimo / Ristrutturato,7.6938308,45.0961632
17/04/2023,Torino,Barriera di Milano,via Fossata,39000,53,2,0,2,1,1967,Ottimo / Ristrutturato,7.6853384,45.0991005
20/03/2023,Torino,Aurora,via Borgo Dora 4,169000,76,2,1,3,1,1980,Buono / Abitabile,7.6841733,45.0787492
12/04/2023,Torino,Aurora,via Sassari 12,79000,69,2,0,3,1,1980,,7.6748888,45.0830107
21/04/2023,Torino,Barriera di Milano,via Leinì 81,39900,55,5,0,2,1,1921,Ottimo / Ristrutturato,7.6919242,45.0939283
18/03/2023,Torino,Barriera di Milano,via Giovanni Pierluigi da Palestrina 19,89000,105,2,0,4,1,1960,Buono / Abitabile,,
18/03/2023,Torino,Barriera di Milano,via Saverio Mercadante 95,119000,80,4,1,3,1,1980,Ottimo / Ristrutturato,7.7009981,45.0940889
18/03/2023,Torino,Rebaudengo,via Gottardo  39,109000,94,7,1,3,1,1970,Buono / Abitabile,7.6922029,45.1004647
20/03/2023,Torino,Rebaudengo,corso Giulio Cesare 187,55000,55,3,1,2,1,1957,Buono / Abitabile,7.6977354,45.0986453
22/03/2023,Torino,Barriera di Milano,via Stradella 12,39000,55,2,0,2,1,1950,Ottimo / Ristrutturato,7.6795026,45.0911236
22/04/2023,Torino,Barriera di Milano,corso Vercelli 101,49000,71,4,0,3,1,1940,Buono / Abitabile,7.690598,45.0939661
22/04/2023,Torino,Barriera di Milano,corso Vercelli 101,39000,56,4,0,3,1,1940,Buono / Abitabile,7.690598,45.0939661
22/04/2023,Torino,Barriera di Milano,corso Vercelli 101,44900,70,1,0,3,1,1940,Buono / Abitabile,7.690598,45.0939661
08/05/2023,Torino,Rebaudengo,corso Vercelli 249,89000,91,4,1,3,1,1964,Buono / Abitabile,7.6965444,45.1065074
12/04/2023,Torino,Barriera di Milano,via Domenico Cimarosa 45,189000,100,1,1,4,1,1980,Ottimo / Ristrutturato,7.7068665,45.0887791
17/03/2023,Torino,Barriera di Milano,via Crescentino 28,59000,78,1,0,4,1,1960,Buono / Abitabile,7.6977981,45.0908474
22/03/2023,Torino,Aurora,corso Brescia 54,100000,75,2,0,3,1,1980,,7.6932594,45.080979
27/03/2023,Torino,Barriera di Milano,via Sempione 134,48000,48,6,1,2,1,1959,Da ristrutturare,7.6962715,45.0975632
05/05/2023,Torino,Aurora,via Aosta 52,135000,90,6,1,3,1,1980,Ottimo / Ristrutturato,7.8556008,45.513133
04/04/2023,Torino,Aurora,corso Palermo 32,189000,100,4,1,4,1,1940,Buono / Abitabile,7.6929171,45.0807719
15/03/2023,Torino,Barriera di Milano,via Feletto 45,75000,84,1,0,3,1,1904,Buono / Abitabile,7.6950411,45.0916095
21/04/2023,Torino,Barriera di Milano,via Francesco Cigna 119,195000,100,6,1,4,2,2012,Ottimo / Ristrutturato,7.6855527,45.0926876
15/04/2023,Torino,Rebaudengo,via vistrorio 26,89900,85,4,1,3,1,1970,Da ristrutturare,7.7002366,45.1072371
21/04/2023,Torino,Barriera di Milano,via Pierluigi Palestrina 19,54900,45,2,0,2,1,1940,Buono / Abitabile,,
14/03/2023,Torino,Barriera di Milano,Loft via Brandizzo 27,29000,40,0,1,2,1,1920,Buono / Abitabile,,
14/03/2023,Torino,Barriera di Milano,corso Vigevano 4,29900,42,1,0,2,1,1930,Buono / Abitabile,7.6873753,45.0893199
14/03/2023,Torino,Aurora,via Bra,29900,43,0,0,2,1,1930,Da ristrutturare,7.6869788,45.0860567
14/03/2023,Torino,Barriera di Milano,via Quittengo,29900,40,0,0,2,1,1930,Da ristrutturare,7.700135,45.0839411
17/04/2023,Torino,Aurora,via Giaveno 3,59000,75,2,0,3,1,1960,Da ristrutturare,7.6778987,45.0875304
21/03/2023,Torino,Barriera di Milano,corso Palermo 119,115000,83,2,1,3,1,1960,Ottimo / Ristrutturato,7.693291,45.090182
12/04/2023,Torino,Barriera di Milano,via Domenico Cimarosa 53,179000,130,7,1,5,2,1980,Buono / Abitabile,7.7064046,45.0892969
11/04/2023,Torino,Barriera di Milano,via Ceresole 17,39000,45,2,0,2,1,1940,Buono / Abitabile,7.6888064,45.0948801
13/03/2023,Torino,Aurora,via lodi 26,56000,48,4,1,2,1,1958,Buono / Abitabile,7.6916975,45.083734
14/04/2023,Torino,Aurora,Loft via Genè 4,169000,74,0,0,1,1,1960,Ottimo / Ristrutturato,,
24/03/2023,Torino,Barriera di Milano,via Ruggero Leoncavallo,130000,70,1,1,2,1,2012,Ottimo / Ristrutturato,7.6428246,44.9968329
27/03/2023,Torino,Barriera di Milano,via Soana 4,48000,47,1,0,2,1,1980,Buono / Abitabile,7.6900979,45.0901507
20/04/2023,Torino,Barriera di Milano,via Monte Rosa,105000,100,5,1,4,1,1960,Ottimo / Ristrutturato,7.6966244,45.0926745
22/03/2023,Torino,Barriera di Milano,via Stradella 12,19000,50,3,0,2,1,1950,Buono / Abitabile,7.6795026,45.0911236
11/03/2023,Torino,Regio Parco,via Carlo Goldoni 3,148000,74,0,0,2,1,1930,Buono / Abitabile,7.6913252,45.074716
18/03/2023,Torino,Rebaudengo,corso Vercelli 248/B,69000,75,8,1,3,1,1970,Buono / Abitabile,7.697519,45.1094739
05/05/2023,Torino,Aurora,corso Brescia 21,128000,100,1,1,3,1,1980,Da ristrutturare,7.6901728,45.0822646
06/05/2023,Torino,Barriera di Milano,via Bologna 93,80000,75,2,1,3,1,1900,Da ristrutturare,7.6998251,45.0845292
27/03/2023,Torino,Barriera di Milano,via Niccolò Paganini 42,68000,74,2,0,3,1,1980,Buono / Abitabile,7.7043142,45.0874245
10/03/2023,Torino,Barriera di Milano,via Ozegna 8,89000,75,3,0,3,1,1930,Buono / Abitabile,7.6947189,45.0951258
03/04/2023,Torino,Barriera di Milano,via Valprato 45,129000,75,7,1,3,1,2007,Ottimo / Ristrutturato,7.6839973,45.0928323
17/04/2023,Torino,Aurora,corso Principe Oddone 86,87000,100,5,0,4,1,1980,Buono / Abitabile,7.6770044,45.0883536
15/04/2023,Torino,Barriera di Milano,via Fossata,60000,75,0,0,3,1,1970,Buono / Abitabile,7.6853384,45.0991005
14/04/2023,Torino,Barriera di Milano,via Lauro Rossi 75,49000,60,1,1,2,1,1980,Da ristrutturare,7.6873027,45.0971737
09/03/2023,Torino,Aurora,corso Palermo 61,49000,50,5,0,2,1,1980,Buono / Abitabile,7.6928798,45.084071
03/05/2023,Torino,Barriera di Milano,corso Giulio Cesare 77,64000,48,5,1,2,1,1950,Buono / Abitabile,7.6913401,45.0888593
08/03/2023,Torino,Rebaudengo,via Giovanni Cena 36,170000,100,4,1,4,2,1980,Buono / Abitabile,7.7017039,45.1086547
17/03/2023,Torino,Barriera di Milano,via Brandizzo,55000,60,1,0,2,1,1950,Ottimo / Ristrutturato,7.694818,45.0921211
08/03/2023,Torino,Barriera di Milano,via Parella 13,139000,100,1,0,4,1,1910,Ottimo / Ristrutturato,7.681034,45.0917038
08/03/2023,Torino,Barriera di Milano,Palazzo - Edificio in Vendita,150000,228,3,0,5,1,1980,Da ristrutturare,,
31/03/2023,Torino,Aurora,via Cremona,169000,118,4,1,3,1,1900,Nuovo / In costruzione,7.6898255,45.0859909
06/05/2023,Torino,Barriera di Milano,corso Palermo 98,54900,65,5,1,3,1,1960,Buono / Abitabile,7.6933747,45.0876326
06/05/2023,Torino,Barriera di Milano,via Santhià 93,33900,50,5,0,2,1,1980,,7.6994486,45.0950632
29/03/2023,Torino,Barriera di Milano,via Aosta 121,79000,95,0,0,4,1,1970,Buono / Abitabile,7.700817,45.0893268
16/03/2023,Torino,Barriera di Milano,via Luigi Salvatore Cherubini 7,165000,150,3,1,5,2,1970,Ottimo / Ristrutturato,7.6951502,45.0927716
21/04/2023,Torino,Barriera di Milano,via Valprato 20,64900,70,2,0,3,1,1935,Ottimo / Ristrutturato,7.6882237,45.0925455
04/05/2023,Torino,Aurora,ottimo stato,218000,110,3,1,4,2,2003,Ottimo / Ristrutturato,,
04/03/2023,Torino,Barriera di Milano,via Santhià 42,115000,92,3,1,3,1,1968,Buono / Abitabile,7.6977089,45.0922331
04/03/2023,Torino,Barriera di Milano,via Lauro Rossi 39,89000,90,3,1,4,1,1950,Buono / Abitabile,7.6905189,45.0957094
06/03/2023,Torino,Barriera di Milano,via Saverio Mercadante 74,134000,80,3,0,3,1,1980,,7.70192633808144,45.0940502
03/03/2023,Torino,Aurora,via Antonio Cecchi 29,50000,66,5,0,3,2,1950,Da ristrutturare,7.6812281,45.0866996
28/03/2023,Torino,Aurora,via Giaveno 24,63000,60,2,1,2,1,1966,Da ristrutturare,7.6800419,45.088408
07/03/2023,Torino,Aurora,via Antonio Cecchi 47,60000,75,5,0,3,1,1950,Ottimo / Ristrutturato,7.6799255,45.0880783
09/05/2023,Torino,Barriera di Milano,via Ozegna,125000,98,2,1,4,2,1964,Buono / Abitabile,7.6944514,45.0946337
17/04/2023,Torino,Barriera di Milano,via Sempione 78 Int  7,59000,70,0,0,3,1,1955,Da ristrutturare,7.6911229,45.098756
23/03/2023,Torino,Barriera di Milano,corso Giulio Cesare 148,59500,65,5,1,3,1,1956,Buono / Abitabile,7.6960614,45.0955141
02/03/2023,Torino,Aurora,corso Giulio Cesare 27,59000,45,2,1,3,1,1980,Buono / Abitabile,7.6872004,45.0827095
04/04/2023,Torino,Aurora,Terratetto plurifamiliare via Cuneo 46,690000,800,1,1,18,1,1990,Buono / Abitabile,,
02/03/2023,Torino,Barriera di Milano,via Renato Martorelli 23,40000,37,2,0,2,1,1930,Buono / Abitabile,7.6935848,45.0945953
08/03/2023,Torino,Barriera di Milano,corso Vercelli 116,99000,120,1,0,1,1,1900,Buono / Abitabile,7.6913993,45.0950831
21/03/2023,Torino,Barriera di Milano,via Saverio Mercadante 57,60000,53,4,1,2,1,1950,Buono / Abitabile,7.6999083,45.0926069
21/04/2023,Torino,Aurora,Mansarda via Beinasco 5,29000,86,4,0,1,1,1950,Da ristrutturare,,
07/03/2023,Torino,Barriera di Milano,via Cherubini,165000,140,3,0,4,2,1980,,7.7017603,45.0928133
09/05/2023,Torino,Aurora,via Beinasco 26,46000,55,4,0,2,1,1950,Da ristrutturare,7.6788994,45.0873335
27/04/2023,Torino,Aurora,via alessandria 39,119000,105,0,0,4,1,1900,Buono / Abitabile,7.6915667,45.08288
03/05/2023,Torino,Barriera di Milano,via Leinì 47,34900,45,4,1,2,1,1960,Buono / Abitabile,7.6914703,45.0915667
06/03/2023,Torino,Aurora,via Biella 13,125000,95,1,0,4,1,1910,Buono / Abitabile,7.6737598,45.0822729
15/04/2023,Torino,Barriera di Milano,quinto piano,75000,50,5,1,2,1,1965,,,
27/02/2023,Torino,Barriera di Milano,via Alfredo Casella 69,69000,70,0,0,3,1,1955,Buono / Abitabile,7.70429,45.0910704
28/03/2023,Torino,Barriera di Milano,via Francesco Cigna 121,189000,90,5,1,3,1,2016,Ottimo / Ristrutturato,7.6857481,45.092961
13/04/2023,Torino,Aurora,via Francesco Cigna 58,42000,50,0,1,2,1,1950,Ottimo / Ristrutturato,7.6849568,45.0916858
15/04/2023,Torino,Barriera di Milano,via Gottardo,60000,65,5,1,2,1,1975,Buono / Abitabile,7.7125582,45.0901532
09/03/2023,Torino,Barriera di Milano,corso Giulio Cesare 124,50000,67,3,0,3,1,1932,Buono / Abitabile,7.6945953,45.0932725
24/02/2023,Torino,Barriera di Milano,via Monte Rosa 127,47000,50,3,0,2,1,1960,Buono / Abitabile,7.698534,45.0957137
22/03/2023,Torino,Barriera di Milano,via caresana 11,99900,90,3,0,4,1,1930,Ottimo / Ristrutturato,7.7054668,45.0879467
31/03/2023,Torino,Barriera di Milano,via Salassa 29,135000,150,4,0,5,2,1940,Ottimo / Ristrutturato,7.6940788,45.0966524
07/04/2023,Torino,Aurora,via Chivasso 15,59000,44,0,0,2,1,1950,Ottimo / Ristrutturato,7.689843,45.0838601
23/02/2023,Torino,Barriera di Milano,via Antonio Vivaldi 5,85000,80,5,1,3,1,1963,Da ristrutturare,7.7013736,45.0921092
23/02/2023,Torino,Barriera di Milano,via Giovanni Pierluigi da Palestrina 39,64000,75,0,1,3,1,1960,Buono / Abitabile,,
23/02/2023,Torino,Barriera di Milano,via Trino,115000,83,2,1,4,2,2004,Ottimo / Ristrutturato,7.6955484,45.0972115
14/03/2023,Torino,Aurora,via Rivarolo 6,169000,109,3,1,4,1,1980,Buono / Abitabile,7.6870439,45.079586
24/02/2023,Torino,Barriera di Milano,via aosta,112000,85,1,1,3,1,1972,Buono / Abitabile,7.6581743,45.0025905
08/05/2023,Torino,Barriera di Milano,via Franco Alfano 1,63000,52,0,1,2,1,1967,Buono / Abitabile,7.7038141,45.0938035
23/02/2023,Torino,Barriera di Milano,Palazzo - Edificio in Vendita,500000,750,0,0,5,1,1900,Ottimo / Ristrutturato,,
28/02/2023,Torino,Barriera di Milano,via Saverio Mercadante 57,70000,58,3,1,2,1,1956,Buono / Abitabile,7.6999083,45.0926069
22/02/2023,Torino,Aurora,via Cuneo 53,59000,49,0,1,2,1,1962,Buono / Abitabile,7.6799291,45.0864099
04/04/2023,Torino,Rebaudengo,corso Vercelli 248,66000,55,5,1,2,1,1970,Buono / Abitabile,7.898089,45.4689702
22/02/2023,Torino,Barriera di Milano,via Monte Rosa 116,72000,60,5,1,2,1,1995,Buono / Abitabile,7.6983357,45.0950925
22/02/2023,Torino,Aurora,via Francesco Cigna 4,120000,60,1,1,3,1,1980,,7.676964,45.0796741
05/04/2023,Torino,Barriera di Milano,via Cervino 42/b,139000,75,1,1,2,1,2000,Ottimo / Ristrutturato,7.6869699,45.0913253
09/03/2023,Torino,Barriera di Milano,via Sempione 130,55000,48,4,1,2,1,1959,Buono / Abitabile,7.6959429,45.0976952
27/02/2023,Torino,Rebaudengo,via Luigi Boccherini 38,129000,89,1,1,3,1,1968,Buono / Abitabile,7.6920854,45.1020849
07/03/2023,Torino,Barriera di Milano,piazza Augusto Rostagni 3,173000,125,3,1,4,1,1980,Ottimo / Ristrutturato,7.7035111,45.0903185
29/04/2023,Torino,Rebaudengo,via Vittoria Colonna 21,129000,85,2,1,3,1,1970,Buono / Abitabile,7.6983596,45.1078028
01/03/2023,Torino,Rebaudengo,via Rocco Scotellaro 25,129000,114,1,1,4,1,1980,Ottimo / Ristrutturato,7.7017909,45.1070052
11/04/2023,Torino,Aurora,corso Giulio Cesare 24,135000,93,5,1,3,1,1912,Da ristrutturare,7.6879352,45.0826917
24/02/2023,Torino,Barriera di Milano,via Barbania 3,24000,45,0,0,2,1,1920,Buono / Abitabile,7.6926557,45.0884339
09/03/2023,Torino,Barriera di Milano,via Leinì 95,79000,64,0,0,3,1,1950,Ottimo / Ristrutturato,7.6921296,45.0949331
21/04/2023,Torino,Barriera di Milano,V.Vestignè 12,77000,120,I,0,1,1,1940,Buono / Abitabile,7.6931544,45.0937244
04/04/2023,Torino,Rebaudengo,via Nicola Porpora 39/12,86900,77,0,1,3,1,1965,Ottimo / Ristrutturato,7.696602,45.1003173
28/02/2023,Torino,Barriera di Milano,via Gaspare Spontini 17,87900,70,3,1,3,1,2008,Ottimo / Ristrutturato,7.6968309,45.09399
20/02/2023,Torino,Barriera di Milano,via Desana 19,29000,55,1,0,2,1,1950,,7.6894882,45.0967268
05/05/2023,Torino,Barriera di Milano,via courmayeur 8,23000,41,5,0,2,1,1930,Da ristrutturare,7.6881503,45.0907101
09/05/2023,Torino,Barriera di Milano,via Monte Valderoa 6,35000,45,1,0,2,1,1945,Buono / Abitabile,7.6969232,45.0944123
21/04/2023,Torino,Barriera di Milano,corso vigevano 50,44900,80,2,0,3,1,1940,Ottimo / Ristrutturato,7.6811817,45.0900427
17/02/2023,Torino,Barriera di Milano,via Ozegna 6,69000,73,2,0,3,1,1940,Buono / Abitabile,7.69468,45.0950189
17/02/2023,Torino,Barriera di Milano,via Errico Petrella 19,159000,190,1,0,5,2,1800,Buono / Abitabile,7.6998712,45.0888428
17/02/2023,Torino,Barriera di Milano,via Leinì 30,37000,48,3,0,2,1,1940,Da ristrutturare,7.6915112,45.0910336
17/02/2023,Torino,Barriera di Milano,via Leinì 30,37000,48,2,0,2,1,1940,Da ristrutturare,7.6915112,45.0910336
09/03/2023,Torino,Barriera di Milano,via Gaspare Spontini 33,73000,75,1,0,3,1,1970,Ottimo / Ristrutturato,7.6987629,45.0934199
31/03/2023,Torino,Aurora,corso Vercelli 19/A,39900,50,1,0,2,1,1900,Buono / Abitabile,7.686389,45.0855415
04/04/2023,Torino,Aurora,corso Brescia 11,29000,45,3,0,2,1,1900,Buono / Abitabile,7.6892193,45.0825789
17/03/2023,Torino,Aurora,corso Principe Oddone 42,159000,95,1,1,4,2,1930,Buono / Abitabile,7.6731107,45.0827837
16/02/2023,Torino,Aurora,corso Emilia 31,49000,50,4,0,2,1,1940,,7.6831363,45.0843523
05/05/2023,Torino,Barriera di Milano,via Fossata 70/5,69000,60,2,1,2,1,1970,Ottimo / Ristrutturato,7.6853384,45.0991005
15/02/2023,Torino,Barriera di Milano,via Umberto Giordano 8,39000,55,4,0,2,1,1950,Buono / Abitabile,7.70364,45.091145
15/02/2023,Torino,Barriera di Milano,via Malone 44,162000,95,3,1,4,1,1980,Ottimo / Ristrutturato,7.695415,45.0886487
22/03/2023,Torino,Aurora,via Piossasco 11/7,99000,112,5,1,3,1,1962,Buono / Abitabile,7.679412,45.0877097
21/04/2023,Torino,Barriera di Milano,Terratetto unifamiliare via Cervino 1/BIS,330000,290,0,0,5,1,1930,Da ristrutturare,,
15/03/2023,Torino,Barriera di Milano,corso Palermo 119,115000,83,2,1,3,1,1960,Ottimo / Ristrutturato,7.693291,45.090182
05/05/2023,Torino,Aurora,via Lodi 16,129000,80,5,1,3,1,1970,Buono / Abitabile,7.6902452,45.0841957
23/03/2023,Torino,Barriera di Milano,corso Giulio Cesare 122,89900,90,3,1,4,1,1950,Buono / Abitabile,7.694538,45.0931846
21/04/2023,Torino,Barriera di Milano,via ceresole  7,37000,55,0,0,2,1,1940,Ottimo / Ristrutturato,7.6884347,45.0941072
21/03/2023,Torino,Rebaudengo,via Rocco Scotellaro 47,149000,130,6,1,5,1,1970,Ottimo / Ristrutturato,7.7028979,45.108131
08/05/2023,Torino,Rebaudengo,via Tronzano 28,88000,90,1,0,3,1,1963,Buono / Abitabile,7.697258,45.0992399
21/04/2023,Torino,Barriera di Milano,buono stato,92000,65,1,0,3,1,1920,Buono / Abitabile,,
20/02/2023,Torino,Rebaudengo,corso Vercelli 160,99000,85,5,1,3,1,1950,Buono / Abitabile,7.6936108,45.0995937
02/03/2023,Torino,Barriera di Milano,via Luigi Salvatore Cherubini 62,45000,50,2,1,2,1,1955,Buono / Abitabile,7.7019076,45.0927225
08/05/2023,Torino,Rebaudengo,via Arturo Toscanini,69000,65,6,1,2,1,1970,Ottimo / Ristrutturato,7.5695016,45.0771164
14/02/2023,Torino,Aurora,largo Francesco Cigna 73,110000,85,5,1,4,1,1934,Buono / Abitabile,7.6820471,45.087511
01/03/2023,Torino,Aurora,via Goffredo Mameli 10,92000,38,3,1,2,1,1900,Ottimo / Ristrutturato,7.6838256,45.0783523
11/03/2023,Torino,Aurora,corso 11 Febbraio 6,155000,110,2,1,5,1,1930,Buono / Abitabile,7.687121,45.076367
13/02/2023,Torino,Barriera di Milano,buono stato,55000,60,2,0,3,1,1920,Buono / Abitabile,,
20/03/2023,Torino,Barriera di Milano,via Brandizzo 27,137000,100,1,1,5,1,1980,Ottimo / Ristrutturato,7.6974547,45.091555
21/04/2023,Torino,Barriera di Milano,corso Giulio Cesare 133,74900,75,0,0,3,1,1960,Ottimo / Ristrutturato,7.6948259,45.0941972
28/04/2023,Torino,Barriera di Milano,via Fossata 5,24900,54,2,0,2,1,1930,Da ristrutturare,7.6889592,45.0915916
21/02/2023,Torino,Aurora,via Schio 9,115000,85,2,1,3,1,1970,Da ristrutturare,7.6838366,45.0881409
13/04/2023,Torino,Aurora,corso Vercelli 19/A,68900,94,1,0,3,1,1900,Buono / Abitabile,7.686389,45.0855415
14/03/2023,Torino,Aurora,corso Regio Parco 24,109000,46,4,1,2,1,1900,Buono / Abitabile,7.6937556,45.0763694
02/05/2023,Torino,Rebaudengo,via Umberto Balestreri 18,50000,52,2,0,2,1,1960,Ottimo / Ristrutturato,7.7002102,45.1100557
02/05/2023,Torino,Rebaudengo,via Umberto Balestreri 18,67500,78,2,0,3,1,1960,Ottimo / Ristrutturato,7.7002102,45.1100557
13/02/2023,Torino,Aurora,via San Giuseppe Benedetto Cottolengo 8,120000,75,2,0,2,1,1900,Buono / Abitabile,7.6822224,45.0782393
17/02/2023,Torino,Barriera di Milano,via Fossata 11,79000,86,4,0,4,1,1950,Buono / Abitabile,7.6887055,45.0921079
14/04/2023,Torino,Aurora,corso Regina Margherita 144,71000,35,2,1,2,1,1950,Ottimo / Ristrutturato,7.6799391,45.0781816
10/02/2023,Torino,Barriera di Milano,via Saverio Mercadante 15,78000,78,2,1,3,1,1950,Buono / Abitabile,7.6982349,45.0899239
06/04/2023,Torino,Aurora,via CECCHI 65,105000,62,5,1,2,1,2012,Ottimo / Ristrutturato,,
09/05/2023,Torino,Aurora,via Genè,279000,106,4,1,4,1,1958,Ottimo / Ristrutturato,7.6888303,45.076084
07/03/2023,Torino,Barriera di Milano,via Cherubini 16,79000,70,2,0,3,1,1980,Buono / Abitabile,7.6959742,45.0925594
21/02/2023,Torino,Rebaudengo,via Bollengo,79000,65,3,1,2,1,1968,Buono / Abitabile,7.9134919,45.4661567
06/05/2023,Torino,Barriera di Milano,via Aosta 141,220000,115,1,0,3,2,1980,Da ristrutturare,7.7027583,45.0897753
08/02/2023,Torino,Aurora,corso Regina Margherita 108,990000,250,2,1,5,2,1950,Da ristrutturare,7.6885116,45.0753339
02/05/2023,Torino,Barriera di Milano,via Crescentino 22,169000,149,3,1,5,2,1978,Buono / Abitabile,7.697626,45.0905603
28/02/2023,Torino,Aurora,via Bologna 9,168000,80,2,1,4,2,1965,Buono / Abitabile,7.6905883,45.080352
08/02/2023,Torino,Barriera di Milano,via Alfredo Casella 48,38000,40,2,0,2,1,1950,Ottimo / Ristrutturato,7.7024648,45.0908278
05/05/2023,Torino,Aurora,corso Palermo 37,55000,35,1,1,1,1,1960,Buono / Abitabile,7.6927277,45.0818286
06/02/2023,Torino,Barriera di Milano,via Rondissone,49000,60,0,1,2,1,1960,Buono / Abitabile,7.6910097,45.0971544
05/05/2023,Torino,Barriera di Milano,via Aosta 64,174000,116,7,1,4,1,1960,Buono / Abitabile,7.6938442,45.0867416
28/04/2023,Torino,Barriera di Milano,via Monte Rosa 129,125000,132,0,0,4,1,1950,Ottimo / Ristrutturato,7.6986191,45.0958431
07/03/2023,Torino,Barriera di Milano,via Francesco Cigna 119,185000,85,1,1,3,1,2017,Nuovo / In costruzione,7.6855527,45.0926876
09/02/2023,Torino,Rebaudengo,via Giovanni Poggio 13,140000,95,2,1,3,1,1970,Ottimo / Ristrutturato,7.6963083,45.0987331
15/03/2023,Torino,Rebaudengo,via Gottardo 37,60000,60,5,1,2,1,1975,Da ristrutturare,7.6920126,45.1005112
06/04/2023,Torino,Barriera di Milano,via Ozegna 22,55000,50,3,0,2,1,1950,Buono / Abitabile,7.6949209,45.0956807
27/04/2023,Torino,Rebaudengo,piazza Conti di Rebaudengo 2,70000,57,2,1,2,1,1970,Ottimo / Ristrutturato,7.6950161,45.1018209
06/02/2023,Torino,Rebaudengo,via Luigi Boccherini 38,96220,85,4,1,3,1,1960,Buono / Abitabile,7.6920854,45.1020849
28/04/2023,Torino,Aurora,Palazzo - Edificio in Vendita,2850000,1,1,0,1,1,2022,Ottimo / Ristrutturato,,
05/05/2023,Torino,Rebaudengo,piazza Conti di Rebaudengo 10,63000,58,8,1,2,1,1968,Buono / Abitabile,7.6957841,45.1026788
28/02/2023,Torino,Barriera di Milano,largo SEMPIONE 178,65900,60,3,1,2,1,1970,Nuovo / In costruzione,7.7005512,45.095298
03/02/2023,Torino,Barriera di Milano,via Leinì,87000,106,5,1,4,1,1960,Buono / Abitabile,7.7673394,45.197167
06/05/2023,Torino,Aurora,via Pinerolo 18,38000,62,2,1,2,1,1940,Buono / Abitabile,7.6884637,45.0874465
09/03/2023,Torino,Barriera di Milano,via Giovanni Paisiello 10/37,65000,57,3,0,2,1,1950,Buono / Abitabile,7.6991458,45.0896087
14/02/2023,Torino,Aurora,via Bra 8,63900,87,2,0,3,1,1900,Buono / Abitabile,7.688004,45.085795
08/05/2023,Torino,Barriera di Milano,corso Vercelli 105,110000,110,3,1,4,1,1964,Da ristrutturare,7.6907888,45.0943558
03/05/2023,Torino,Barriera di Milano,corso Vercelli 88,24900,48,2,0,2,1,1940,Buono / Abitabile,7.6899727,45.0921838
05/05/2023,Torino,Barriera di Milano,via Alessandro Scarlatti 31,59000,60,0,1,2,1,1970,Buono / Abitabile,7.6975578,45.0900572
26/04/2023,Torino,Barriera di Milano,via Ceresole 17,40000,40,2,0,1,1,1960,Ottimo / Ristrutturato,7.6888064,45.0948801
01/02/2023,Torino,Barriera di Milano,via Belmonte 15,94000,45,5,1,3,1,2000,Ottimo / Ristrutturato,7.6878281,45.0932889
03/05/2023,Torino,Aurora,Strada del Fortino 38,259000,100,6,1,4,2,2000,Nuovo / In costruzione,7.6769045,45.0862069
08/05/2023,Torino,Aurora,via Cuneo 3 Bis,64000,46,0,1,2,1,1935,Ottimo / Ristrutturato,7.6889915,45.0861922
06/05/2023,Torino,Quadrilatero Romano,corso Regina Margherita 121,165000,70,3,0,4,1,1900,Buono / Abitabile,7.6816524,45.077125
28/02/2023,Torino,Barriera di Milano,corso Vercelli 65,295000,153,4,1,5,2,1968,Ottimo / Ristrutturato,7.6887215,45.0901245
31/01/2023,Torino,Rebaudengo,via Giovanni Poggio 13,75000,54,2,1,2,1,1970,Ottimo / Ristrutturato,7.6963083,45.0987331
29/03/2023,Torino,Barriera di Milano,via Montanaro 61,45000,70,4,0,3,1,1930,,7.695265,45.0936236
31/01/2023,Torino,Rebaudengo,via Nicola Porpora 39,59000,56,2,1,2,1,1965,Buono / Abitabile,7.6981117,45.1002485
31/01/2023,Torino,Barriera di Milano,via Rivarossa 5,169000,157,2,0,5,1,1960,Buono / Abitabile,7.6953602,45.0958046
31/01/2023,Torino,Barriera di Milano,via calvi 20,169900,130,2,0,3,1,1930,Nuovo / In costruzione,7.6972403,45.0956038
06/03/2023,Torino,Aurora,corso Novara 46,49000,80,6,1,3,1,1950,Buono / Abitabile,7.6935869,45.0860097
01/05/2023,Torino,Barriera di Milano,via Lauro Rossi 25,59000,41,0,0,2,1,1980,Ottimo / Ristrutturato,7.6924736,45.095132
07/05/2023,Torino,Rebaudengo,via Campobasso 30,65000,63,2,0,2,1,1965,Ottimo / Ristrutturato,7.7002196,45.1077597
08/04/2023,Torino,Rebaudengo,via Tronzano 8,59900,69,2,0,3,1,1958,Buono / Abitabile,7.6948944,45.0997708
21/03/2023,Torino,Quadrilatero Romano,corso Regina Margherita 123,170000,137,2,0,5,2,1900,Ottimo / Ristrutturato,7.6815046,45.0771745
20/04/2023,Torino,Barriera di Milano,largo SEMPIONE 174,139900,115,6,1,3,2,1980,Buono / Abitabile,7.7002172,45.0954337
20/04/2023,Torino,Barriera di Milano,via Monte Rosa 77,69000,65,3,1,3,1,1950,Buono / Abitabile,7.6961722,45.0921225
13/04/2023,Torino,Barriera di Milano,via Francesco Cigna 119,205000,98,4,1,4,2,2012,Nuovo / In costruzione,7.6855527,45.0926876
16/02/2023,Torino,Barriera di Milano,via Cervino 42,258000,140,1,1,4,2,2007,Ottimo / Ristrutturato,7.6839712,45.0916344
22/03/2023,Torino,Aurora,plurifamiliare via Vittorio Bersezio 7,339000,488,5,0,5,1,1973,Da ristrutturare,,
07/03/2023,Torino,Barriera di Milano,via Monte Nero 2,38000,45,0,0,2,1,1950,Buono / Abitabile,7.6961662,45.0952009
26/02/2023,Torino,Barriera di Milano,via Gaspare Spontini 29,110000,105,0,1,4,2,1970,Buono / Abitabile,7.69825,45.0935701
23/03/2023,Torino,Rebaudengo,via Giovanni Cena 2,99000,77,2,1,3,1,1967,Ottimo / Ristrutturato,7.6978418,45.1092412
26/01/2023,Torino,Barriera di Milano,via Monte Valderoa 1,47000,57,3,0,2,1,1963,Buono / Abitabile,7.6966898,45.0946352
25/01/2023,Torino,Barriera di Milano,unifamiliare via Crescentino 10,298000,420,1,0,5,3,1920,Buono / Abitabile,,
02/05/2023,Torino,Barriera di Milano,piazza Cimarosa 45,179000,130,2,1,4,1,1977,Buono / Abitabile,7.7075107,45.0880558
13/04/2023,Torino,Quadrilatero Romano,via Delle Orfane 29,35000,15,4,0,1,1,1930,Ottimo / Ristrutturato,7.6804594,45.0773305
17/04/2023,Torino,Barriera di Milano,via MERCADANTE 15,89000,90,1,1,3,1,1965,Ottimo / Ristrutturato,7.6982349,45.0899239
12/04/2023,Torino,Barriera di Milano,via Alessandro Scarlatti 48,89000,90,1,1,3,1,1965,Ottimo / Ristrutturato,7.6979727,45.0898162
20/03/2023,Torino,Barriera di Milano,via Domenico Cimarosa,179000,135,0,0,4,2,1970,Da ristrutturare,7.7065447,45.0893569
20/02/2023,Torino,Aurora,via Alessandria 8,149000,90,4,0,4,1,1900,Buono / Abitabile,7.6903068,45.0807241
21/01/2023,Torino,Barriera di Milano,via sesia 7,79900,69,1,0,3,1,1960,Buono / Abitabile,7.6900528,45.0906708
21/04/2023,Torino,Barriera di Milano,via ELVO 12,25000,65,3,0,2,1,1980,,7.6912851,45.0914179
18/04/2023,Torino,Barriera di Milano,piazza respighi 13,59900,50,2,1,2,1,1960,Ottimo / Ristrutturato,7.7029274,45.0930772
15/03/2023,Torino,Barriera di Milano,via Giovanni Paisiello 57,90000,75,6,1,3,1,1960,Buono / Abitabile,7.703582,45.093358
31/01/2023,Torino,Barriera di Milano,via Brandizzo 11,58000,60,1,0,3,1,1940,Buono / Abitabile,7.6952867,45.0920723
28/03/2023,Torino,Aurora,corso Vigevano 59,55000,75,0,0,3,1,1928,Buono / Abitabile,7.6796373,45.0897566
13/02/2023,Torino,Aurora,Strada del Fortino 38/C,149000,73,2,1,3,2,2000,Buono / Abitabile,7.6799193,45.0842771
21/04/2023,Torino,Aurora,corso Novara 38,139000,100,3,1,3,1,1960,Ottimo / Ristrutturato,7.6925843,45.0864301
22/03/2023,Torino,Barriera di Milano,Mansarda via Verres,25000,40,6,1,2,1,1950,Da ristrutturare,,
01/02/2023,Torino,Rebaudengo,via Botticelli 16,69000,60,3,1,2,1,1980,Buono / Abitabile,7.7061316,45.1027877
23/03/2023,Torino,Barriera di Milano,via Francesco Cigna 156,79000,90,5,1,3,1,1964,Buono / Abitabile,7.6882124,45.0956889
27/04/2023,Torino,Rebaudengo,corso Vercelli 168,179000,120,3,1,3,1,1973,Buono / Abitabile,7.6942507,45.100613
25/03/2023,Torino,Aurora,via Piossasco 21,55000,58,1,1,2,1,1900,Da ristrutturare,7.6806929,45.0877514
18/01/2023,Torino,Aurora,corso Emilia 40,69000,45,3,0,2,1,1980,Buono / Abitabile,7.6810088,45.0852789
19/04/2023,Torino,Barriera di Milano,via Monte Rosa 46,72000,83,3,0,4,1,1950,Buono / Abitabile,7.6949118,45.0897195
14/02/2023,Torino,Aurora,corso Giulio Cesare 23,84900,70,5,1,3,2,1900,Buono / Abitabile,7.6868714,45.0822081
20/03/2023,Torino,Barriera di Milano,via Sesia 19,28000,30,1,0,2,1,1920,Buono / Abitabile,7.691056,45.0904163
01/03/2023,Torino,Barriera di Milano,corso Giulio Cesare 155,99000,110,4,1,4,1,1894,Da ristrutturare,7.6956396,45.0954397
22/03/2023,Torino,Aurora,buono stato,70000,44,0,0,2,1,1980,Buono / Abitabile,,
28/04/2023,Torino,Barriera di Milano,via Monte Rosa 116,68000,60,9,1,2,1,1980,Buono / Abitabile,7.6983357,45.0950925
04/05/2023,Torino,San Donato,corso Principe Eugenio 4,195000,90,4,1,3,1,1700,Ottimo / Ristrutturato,7.6748297,45.0790528
18/04/2023,Torino,Aurora,via Piossasco 25,49000,65,3,0,3,1,1947,Da ristrutturare,7.6809975,45.087896
10/03/2023,Torino,Rebaudengo,corso Vercelli 210,75000,85,3,1,3,1,1968,Buono / Abitabile,7.6969836,45.1061957
09/05/2023,Torino,Aurora,via Biella 16,69000,74,1,0,4,1,1900,Ottimo / Ristrutturato,7.6765249,45.0861925
13/01/2023,Torino,Barriera di Milano,via Alberto Viriglio 17,67000,76,1,0,3,1,1955,Da ristrutturare,7.7014881,45.0917906
13/01/2023,Torino,Barriera di Milano,via Gaspare Spontini 17,57000,53,1,1,2,1,2008,Ottimo / Ristrutturato,7.6968309,45.09399
27/03/2023,Torino,Barriera di Milano,corso Giulio Cesare 155,99000,110,4,1,4,1,1930,Da ristrutturare,7.6956396,45.0954397
13/03/2023,Torino,Barriera di Milano,corso Vercelli 148,25000,36,3,0,2,1,1900,Da ristrutturare,7.8911234,45.4682894
16/01/2023,Torino,Barriera di Milano,via Arrigo Boito 37,55000,60,3,0,2,1,1965,Buono / Abitabile,7.701775,45.0900725
21/04/2023,Torino,Barriera di Milano,via Renato Martorelli 20,33000,60,1,1,2,1,1940,Da ristrutturare,7.6938157,45.0942371
21/04/2023,Torino,Barriera di Milano,via ELVO 3,30000,65,3,0,3,1,1930,Buono / Abitabile,7.6901296,45.0917994
18/03/2023,Torino,Barriera di Milano,via Feletto 9,49900,75,1,0,3,1,1940,Buono / Abitabile,7.6914375,45.0922797
12/01/2023,Torino,Barriera di Milano,unifamiliare via Leinì,158000,142,3,0,4,2,1920,Da ristrutturare,,
06/04/2023,Torino,Aurora,via Antonio Cecchi 27,159000,120,5,1,5,1,1960,Buono / Abitabile,7.6813397,45.086582
29/03/2023,Torino,Barriera di Milano,Terratetto unifamiliare via RENATO MARTORELLI 68,640000,680,0,0,1,1,1930,Buono / Abitabile,,
15/02/2023,Torino,Barriera di Milano,via Saverio Mercadante 97,107000,80,5,1,3,1,1980,Buono / Abitabile,7.7010454,45.094161
30/03/2023,Torino,Barriera di Milano,via Chatillon 7,55000,91,2,0,4,1,1945,Buono / Abitabile,7.689282,45.0936888
23/03/2023,Torino,Aurora,via Piossasco 25,95000,45,2,0,2,1,1960,Ottimo / Ristrutturato,7.6809975,45.087896
18/04/2023,Torino,Barriera di Milano,via Lombardore 4,49000,70,3,0,3,1,1900,Ottimo / Ristrutturato,7.6917525,45.0879263
06/05/2023,Torino,Aurora,via Antonio Cecchi 60,49000,62,2,1,3,1,1940,Buono / Abitabile,7.6797936,45.0885036
03/05/2023,Torino,Barriera di Milano,via Baltea 16,34000,51,1,0,2,1,1960,Da ristrutturare,7.6911999,45.090837
16/01/2023,Torino,Barriera di Milano,ottimo stato,79000,85,1,0,4,1,1980,Ottimo / Ristrutturato,,
20/04/2023,Torino,Barriera di Milano,Loft via Valprato 69,376300,142,0,1,4,2,2022,Nuovo / In costruzione,,
24/01/2023,Torino,Aurora,via Francesco Cigna 35,87000,78,2,1,3,1,1980,Buono / Abitabile,7.6790802,45.083202
21/02/2023,Torino,Rebaudengo,buono stato,75000,75,3,1,3,1,1960,Buono / Abitabile,,
24/02/2023,Torino,Aurora,via Beinasco 2,48000,50,3,0,2,1,1900,Buono / Abitabile,7.5261973,45.0898727
06/04/2023,Torino,Aurora,Loft via Beinasco 2,75000,75,0,0,1,1,1980,Da ristrutturare,,
04/01/2023,Torino,Barriera di Milano,via Saverio Mercadante 20,45000,50,0,0,2,1,1960,Buono / Abitabile,7.6987877,45.0903707
05/05/2023,Torino,Aurora,via Goffredo Mameli 12,89000,29,3,1,2,1,1980,,7.6836091,45.0785183
23/01/2023,Torino,Aurora,via Ravenna,99000,51,2,1,2,1,1940,Buono / Abitabile,7.6740901,45.0826196
01/03/2023,Torino,Barriera di Milano,via Antonio Banfo,125000,90,5,1,3,1,1970,Buono / Abitabile,7.6870321,45.09132
25/01/2023,Torino,Aurora,via Francesco Cigna 64,139000,100,1,1,4,1,1957,,7.681798,45.0865373
06/05/2023,Torino,Barriera di Milano,nuovo,165000,75,0,0,3,1,1980,Nuovo / In costruzione,6.933791515978864,45.84514755
15/04/2023,Torino,Barriera di Milano,via Alessandro Scarlatti,59000,60,0,1,2,1,1970,Buono / Abitabile,7.6940813,45.0908232
28/04/2023,Torino,Barriera di Milano,via Antonio Vivaldi 12,69000,70,0,0,3,1,1950,Buono / Abitabile,7.7016167,45.0923698
28/03/2023,Torino,Barriera di Milano,via Bologna 99,99000,75,1,1,3,1,1930,Ottimo / Ristrutturato,7.7005539,45.0849873
29/12/2022,Torino,Aurora,corso Emilia 35,84000,70,4,0,3,1,1980,Buono / Abitabile,7.6827134,45.0844928
08/05/2023,Torino,Barriera di Milano,piazza Francesco Crispi 61,100000,90,4,1,3,1,1980,Da ristrutturare,7.6884995,45.0899052
15/04/2023,Torino,Barriera di Milano,via Montanaro,65000,85,4,0,3,1,1960,Buono / Abitabile,7.8825874,45.1945488
21/04/2023,Torino,Barriera di Milano,via Leinì 51,79000,110,4,1,4,1,1962,Buono / Abitabile,7.6915166,45.0917944
12/04/2023,Torino,Rebaudengo,via Arturo Toscanini 14,149000,87,8,1,3,2,1970,Ottimo / Ristrutturato,7.6928321,45.1011721
18/04/2023,Torino,Barriera di Milano,corso Novara 35,79000,83,3,0,4,1,1900,Buono / Abitabile,7.6944543,45.0861175
30/03/2023,Torino,Barriera di Milano,via scarlatti 54,64900,75,4,1,3,1,1960,Nuovo / In costruzione,,
07/03/2023,Torino,Aurora,corso Vercelli 11,188000,190,1,0,5,3,1930,Buono / Abitabile,7.6849095,45.083596
22/12/2022,Torino,Aurora,corso Giulio Cesare 58,48000,60,1,1,1,1,1960,Ottimo / Ristrutturato,7.6906896,45.0868796
21/12/2022,Torino,Aurora,via Alessandria 42,275000,96,3,1,3,2,2023,Nuovo / In costruzione,7.6921138,45.083454
09/05/2023,Torino,Aurora,via Alessandria 42,185000,60,3,1,2,1,2023,Nuovo / In costruzione,7.6921138,45.083454
06/03/2023,Torino,Aurora,via Alessandria 11,125000,77,4,1,3,1,1954,Buono / Abitabile,7.6901218,45.0806934
21/12/2022,Torino,Aurora,via Alessandria 42,290000,101,1,1,3,2,2023,Nuovo / In costruzione,7.6921138,45.083454
20/12/2022,Torino,Aurora,via Aosta 16,79000,50,2,1,2,1,1970,Ottimo / Ristrutturato,7.6900292,45.0826652
06/02/2023,Torino,Barriera di Milano,via Belmonte 7,89000,75,2,0,4,1,1960,Ottimo / Ristrutturato,7.6892111,45.0931393
21/12/2022,Torino,Aurora,via Alessandria 42,155000,60,2,1,2,1,2023,Nuovo / In costruzione,7.6921138,45.083454
20/12/2022,Torino,Aurora,via Alessandria 42,235000,99,1,1,3,2,2023,Nuovo / In costruzione,7.6921138,45.083454
03/05/2023,Torino,Barriera di Milano,buono stato,64900,75,4,1,3,1,1940,Buono / Abitabile,,
31/01/2023,Torino,Barriera di Milano,corso Vercelli 114,39500,50,1,1,2,1,1950,Ottimo / Ristrutturato,7.6913242,45.0949314
09/03/2023,Torino,Rebaudengo,via campobasso 33,99000,85,0,1,3,1,1970,Buono / Abitabile,7.7007862,45.1077001
06/04/2023,Torino,Barriera di Milano,via Santhià,32000,44,2,0,2,1,1959,Da ristrutturare,7.6952252,45.0887176
03/02/2023,Torino,Aurora,via Cuneo 36,299000,180,2,1,5,2,2001,Ottimo / Ristrutturato,7.6813392,45.0871391
28/02/2023,Torino,Barriera di Milano,via Alessandro Scarlatti 34,33000,40,1,0,2,1,1980,Ottimo / Ristrutturato,7.6966444,45.0901367
20/02/2023,Torino,Barriera di Milano,Terratetto plurifamiliare via Lauro Rossi,230000,635,0,0,5,1,1920,Da ristrutturare,,
05/04/2023,Torino,Rebaudengo,via Nicola Porpora,65000,60,0,1,3,1,1970,Buono / Abitabile,7.696602,45.1003173
30/03/2023,Torino,Barriera di Milano,nuovo,158000,115,4,1,4,2,1958,Nuovo / In costruzione,6.933791515978864,45.84514755
17/04/2023,Torino,San Donato,corso Regina Margherita 153,229000,100,2,1,5,2,1950,Ottimo / Ristrutturato,7.6734421,45.0798471
27/02/2023,Torino,Rebaudengo,via Giovanni Cena 2,99000,85,7,1,3,1,1967,Buono / Abitabile,7.6978418,45.1092412
27/01/2023,Torino,Barriera di Milano,via Luigi Salvatore Cherubini 20,36900,50,5,0,2,1,1960,Buono / Abitabile,7.6969144,45.0925853
12/04/2023,Torino,Aurora,corso Principe Oddone 60,125000,80,2,1,3,1,1930,Buono / Abitabile,7.674773,45.0851593
15/12/2022,Torino,Barriera di Milano,via Alessandro Scarlatti 31,59000,58,0,1,2,1,1970,Buono / Abitabile,7.6975578,45.0900572
09/03/2023,Torino,Barriera di Milano,Terratetto unifamiliare corso Vercelli 88,89800,210,0,0,5,1,1950,Buono / Abitabile,,
10/12/2022,Torino,Rebaudengo,via Poggio 8,89000,75,2,1,3,1,1965,Buono / Abitabile,7.6970125,45.0987328
04/04/2023,Torino,Rebaudengo,via boccherini 35,99900,87,6,1,3,1,1970,Buono / Abitabile,7.6934343,45.1010793
08/04/2023,Torino,Barriera di Milano,via Salassa 1,39900,45,3,1,2,1,1940,Ottimo / Ristrutturato,7.6960554,45.096362
18/02/2023,Torino,Aurora,corso Brescia 22,49000,45,3,0,2,1,1900,Buono / Abitabile,7.6898938,45.0820929
26/01/2023,Torino,Regio Parco,corso Regio Parco 44,189000,83,5,1,3,1,1980,Buono / Abitabile,7.6975159,45.0779432
03/04/2023,Torino,Barriera di Milano,via Fossata,89000,101,3,1,4,2,1960,Buono / Abitabile,7.6853384,45.0991005
28/04/2023,Torino,Aurora,via Biella 48,169000,85,3,1,3,2,1980,Ottimo / Ristrutturato,7.6765504,45.0859303
12/12/2022,Torino,Rebaudengo,via Porpora 29,88000,80,3,1,3,1,1960,Buono / Abitabile,7.696602,45.1003173
08/04/2023,Torino,Barriera di Milano,corso Vercelli 144,49900,45,3,0,2,1,1940,Buono / Abitabile,7.6927717,45.0978861
09/03/2023,Torino,Rebaudengo,via Porpora 29,85000,80,3,1,3,1,1960,Buono / Abitabile,7.696602,45.1003173
12/12/2022,Torino,Rebaudengo,via porpora 29/9,48000,60,1,1,2,1,1960,Da ristrutturare,7.696602,45.1003173
22/03/2023,Torino,Rebaudengo,via Porpora 29/9,52000,60,2,1,2,1,1960,Da ristrutturare,7.696602,45.1003173
12/12/2022,Torino,Rebaudengo,via Porpora 29/9,48000,65,0,1,2,1,1960,Da ristrutturare,7.696602,45.1003173
13/12/2022,Torino,Barriera di Milano,lombardore 10,54000,62,2,0,3,1,1940,Da ristrutturare,7.7751241,45.2050371
27/04/2023,Torino,Barriera di Milano,via Monte Rosa 28,85000,95,1,1,4,1,1980,Buono / Abitabile,7.6942606,45.0883703
07/03/2023,Torino,Barriera di Milano,via CHIUSELLA 13/3,159000,95,0,0,4,2,1930,Ottimo / Ristrutturato,7.514454,45.0791322
06/12/2022,Torino,Barriera di Milano,buono stato,85000,85,0,0,4,1,1950,Buono / Abitabile,,
12/12/2022,Torino,Rebaudengo,via Porpora 29/9,46000,65,0,1,2,1,1960,Da ristrutturare,7.696602,45.1003173
07/12/2022,Torino,Barriera di Milano,via Renato Martorelli,78000,89,3,0,4,1,1980,,7.6938308,45.0961632
05/12/2022,Torino,Barriera di Milano,via Sesia 59,124000,110,1,0,4,1,1980,Buono / Abitabile,7.695813,45.089237
27/01/2023,Torino,Barriera di Milano,piazza Francesco Crispi 58,78000,87,2,0,4,1,1939,Ottimo / Ristrutturato,7.6891361,45.0896169
08/05/2023,Torino,Barriera di Milano,via Valprato,125000,112,4,1,5,1,1960,Buono / Abitabile,7.6880536,45.0924935
28/12/2022,Torino,Aurora,corso Vercelli 21,98000,115,3,0,5,1,1980,Da ristrutturare,7.6865519,45.0858731
21/03/2023,Torino,Aurora,corso Emilia 13,149000,78,2,0,3,1,1980,Ottimo / Ristrutturato,7.6853803,45.083522
21/04/2023,Torino,Barriera di Milano,via ceresole  2,53000,65,3,1,3,1,1940,Ottimo / Ristrutturato,7.6884116,45.093534
21/04/2023,Torino,Barriera di Milano,via Renato Martorelli 8,77000,85,1,0,4,1,1940,Ottimo / Ristrutturato,7.6937547,45.0933378
08/04/2023,Torino,Barriera di Milano,via Renato Martorelli 69,59900,65,5,0,3,1,1960,Ottimo / Ristrutturato,7.6937749,45.097472
15/03/2023,Torino,Barriera di Milano,via Elvo 20,62000,68,2,0,3,1,1950,Ottimo / Ristrutturato,7.6921481,45.0912108
07/02/2023,Torino,Aurora,via Cuneo 3,75000,46,0,1,2,1,1900,Ottimo / Ristrutturato,7.6891552,45.0861387
21/04/2023,Torino,Aurora,via Piossasco 25,39000,45,1,0,2,1,1940,Buono / Abitabile,7.6809975,45.087896
24/04/2023,Torino,Barriera di Milano,via Stradella 12,39000,50,2,0,2,1,1900,Da ristrutturare,7.6795026,45.0911236
21/04/2023,Torino,Rebaudengo,via Cogne 21,179000,142,2,1,5,2,1960,Buono / Abitabile,7.6991626,45.1074695
28/02/2023,Torino,Aurora,corso Brescia 13,55000,75,1,0,3,1,1900,Da ristrutturare,7.6895047,45.0824844
04/05/2023,Torino,Rebaudengo,via Nicola Porpora 39/10,68000,50,2,1,2,1,1960,,7.696602,45.1003173
25/02/2023,Torino,Barriera di Milano,via Saverio mercadante 55,149000,120,2,0,5,2,1962,Buono / Abitabile,7.6999296,45.092448
03/12/2022,Torino,Aurora,Terratetto plurifamiliare via Francesco Cigna 2,198000,301,0,0,5,1,1950,Da ristrutturare,,
03/04/2023,Torino,Barriera di Milano,via Monte Rosa 101,79000,61,2,1,2,1,1960,Ottimo / Ristrutturato,7.6974649,45.0940869
06/02/2023,Torino,Barriera di Milano,via Francesco Cigna 119,265000,120,1,1,4,2,2017,Nuovo / In costruzione,7.6855527,45.0926876
30/11/2022,Torino,Barriera di Milano,via Valprato 69,376000,142,0,0,3,2,2022,Nuovo / In costruzione,7.6818385,45.0933121
30/11/2022,Torino,Barriera di Milano,via Valprato 69,225000,85,0,0,2,2,2022,Nuovo / In costruzione,7.6818385,45.0933121
27/02/2023,Torino,Barriera di Milano,via Agliè 4,72000,68,0,1,3,1,1900,Buono / Abitabile,7.6923475,45.0874864
30/03/2023,Torino,Rebaudengo,via Giovanni Poggio 8,55000,60,5,1,2,1,1964,Da ristrutturare,7.6970125,45.0987328
30/11/2022,Torino,Rebaudengo,buono stato,75000,71,1,0,3,1,1980,Buono / Abitabile,,
31/01/2023,Torino,Aurora,Palazzo - Edificio in Vendita,890000,696,0,0,5,1,1900,Buono / Abitabile,,
09/05/2023,Torino,Aurora,via Clemente Damiano Priocca,120000,70,0,1,3,1,1940,Buono / Abitabile,7.6856949,45.0774546
08/04/2023,Torino,Barriera di Milano,via sempionee 78/2,99000,96,1,0,4,1,1960,Ottimo / Ristrutturato,,
03/02/2023,Torino,Barriera di Milano,Loft via Salassa,60000,80,0,0,3,1,1960,Ottimo / Ristrutturato,,
14/12/2022,Torino,Aurora,via Cuneo 55,115000,70,4,1,3,1,1970,Ottimo / Ristrutturato,7.6797227,45.0863102
29/11/2022,Torino,Barriera di Milano,via Renato Martorelli 48,59000,65,2,0,3,1,1940,Buono / Abitabile,7.6939284,45.0959181
28/11/2022,Torino,Barriera di Milano,corso Novara 21,115000,120,2,0,5,1,1900,Da ristrutturare,7.6919848,45.0874805
08/05/2023,Torino,Aurora,via Carmagnola,250000,110,2,1,4,2,1980,Nuovo / In costruzione,7.515093,45.034339
20/12/2022,Torino,Barriera di Milano,via Volpianoo 12,44900,70,3,0,3,1,1940,Buono / Abitabile,,
21/04/2023,Torino,Barriera di Milano,corso Vercelli 88,44900,65,0,0,2,2,1940,Ottimo / Ristrutturato,7.6899727,45.0921838
15/02/2023,Torino,Barriera di Milano,via Luigi Salvatore Cherubini 32,51900,48,1,0,2,1,1960,Nuovo / In costruzione,7.6982289,45.0926215
06/04/2023,Torino,Barriera di Milano,via sempione 138,39000,40,4,0,2,1,1920,Buono / Abitabile,7.6965678,45.0974441
13/12/2022,Torino,Rebaudengo,via Rocco Scotellaro 29,99000,100,4,1,4,1,1973,Buono / Abitabile,7.7021072,45.1072065
01/03/2023,Torino,Barriera di Milano,corso Giulio Cesare 143,149900,95,3,1,4,1,1970,Buono / Abitabile,7.6951681,45.0947188
17/04/2023,Torino,Barriera di Milano,via Sempione 152,79000,80,2,0,3,1,1960,Buono / Abitabile,7.6983133,45.0967348
03/04/2023,Torino,Barriera di Milano,via MONTANARO 4,32900,49,2,0,2,1,1904,Buono / Abitabile,7.6937526,45.0899557
05/05/2023,Torino,Aurora,via Antonio Cecchi 5,98000,92,5,1,4,1,1960,Buono / Abitabile,7.6828363,45.0850039
18/04/2023,Torino,Barriera di Milano,ottimo stato,59000,55,5,1,2,1,1950,Ottimo / Ristrutturato,,
27/04/2023,Torino,Aurora,Palazzo - Edificio in Vendita,1950000,2,5,0,1,1,1850,Da ristrutturare,,
22/02/2023,Torino,Rebaudengo,via Gottardo 37,60000,65,5,1,2,1,1975,Da ristrutturare,7.6920126,45.1005112
11/04/2023,Torino,Barriera di Milano,via Sempione 124,93000,80,3,1,3,1,1970,Buono / Abitabile,7.6951104,45.0980306
04/04/2023,Torino,Aurora,corso Novara 38,95000,80,3,1,3,1,1957,Buono / Abitabile,7.6925843,45.0864301
24/04/2023,Torino,Barriera di Milano,via Monte Valderoa 3,59000,71,5,1,3,1,1952,,7.6968862,45.0945719
18/01/2023,Torino,Barriera di Milano,corso Vercelli 103,34000,35,2,0,2,1,1930,Buono / Abitabile,7.6906997,45.0941738
23/11/2022,Torino,Barriera di Milano,via Pierluigi Palestina 29,109000,90,3,1,4,1,1960,Ottimo / Ristrutturato,,
22/04/2023,Torino,Rebaudengo,via Sandro Botticelli 11/20,104000,90,3,1,3,1,1970,Ottimo / Ristrutturato,7.6971168,45.1030235
07/03/2023,Torino,Barriera di Milano,via Antonio Banfo 4,39000,54,2,0,2,1,1980,Buono / Abitabile,7.686719,45.0895107
14/04/2023,Torino,Aurora,via Salerno 33,185000,95,1,1,4,2,2005,Ottimo / Ristrutturato,7.6759642,45.0831776
05/05/2023,Torino,Rebaudengo,via Roppolo,190000,80,1,1,3,1,2016,Nuovo / In costruzione,7.696892,45.1018381
05/05/2023,Torino,"Via Roppolo, 12",via Roppolo,400000,100,5,1,3,1,2010,Nuovo / In costruzione,7.696892,45.1018381
03/03/2023,Torino,Aurora,via Francesco Cigna 42,148000,103,1,1,4,1,1960,Ottimo / Ristrutturato,7.6794697,45.0832696
06/02/2023,Torino,Barriera di Milano,via Salassa 1,28000,46,2,1,2,1,1950,Buono / Abitabile,7.6960554,45.096362
17/04/2023,Torino,Aurora,corso Regina Margherita 144,135000,55,3,1,2,1,1950,Ottimo / Ristrutturato,7.6799391,45.0781816
27/01/2023,Torino,Barriera di Milano,via GOLETTA 9,69000,63,0,0,2,1,1970,Ottimo / Ristrutturato,7.6880437,45.091731
21/04/2023,Torino,Barriera di Milano,via ALAGNA 11,189000,98,2,1,4,2,2000,Nuovo / In costruzione,7.6802797,45.0917613
15/02/2023,Torino,Aurora,via Giuseppe Camino 18,95000,70,4,1,4,1,1980,Ottimo / Ristrutturato,7.6906795,45.0847919
06/03/2023,Torino,Barriera di Milano,corso Giulio Cesare 97,79900,71,1,1,3,1,1965,Da ristrutturare,7.6923573,45.090417
22/12/2022,Torino,Barriera di Milano,via Antonio Banfo 51,100000,74,1,0,3,1,1940,Ottimo / Ristrutturato,7.6872907,45.0928742
04/02/2023,Torino,Barriera di Milano,via Alessandro Scarlatti 54,89000,77,4,1,3,1,1958,Ottimo / Ristrutturato,7.699436,45.0894649
17/03/2023,Torino,Aurora,corso Brescia 6,70900,60,1,1,3,1,1950,Ottimo / Ristrutturato,7.6885764,45.0825298
28/04/2023,Torino,Aurora,corso Giulio Cesare 41,110000,121,6,1,4,1,1960,Da ristrutturare,7.6885761,45.0846327
04/04/2023,Torino,Barriera di Milano,unifamiliare via bairo 6,189000,130,0,0,5,2,1960,Ottimo / Ristrutturato,,
07/03/2023,Torino,Barriera di Milano,corso Giulio Cesare 136/A,29900,46,5,0,2,1,1950,Ottimo / Ristrutturato,7.6870454,45.0819602
03/05/2023,Torino,Barriera di Milano,via Volpianoo 5,110000,125,0,1,5,1,1940,Da ristrutturare,,
23/03/2023,Torino,Regio Parco,corso Giulio Cesare 208,105000,90,5,1,3,1,1970,Buono / Abitabile,7.6990951,45.1000253
20/02/2023,Torino,Barriera di Milano,corso Palermo 114,125000,80,3,1,3,1,1980,Ottimo / Ristrutturato,7.6934595,45.0889226
27/01/2023,Torino,Barriera di Milano,via lauro rossi 67,113000,89,1,1,3,1,1940,Buono / Abitabile,7.6878232,45.0968025
09/11/2022,Torino,Barriera di Milano,via Rondissone 24,65000,75,4,1,3,1,1950,Da ristrutturare,7.6912773,45.0971667
01/12/2022,Torino,Barriera di Milano,via Francesco Cigna 125,119000,62,4,1,2,1,2017,Nuovo / In costruzione,7.6860796,45.0933998
08/05/2023,Torino,Barriera di Milano,corso Vercelli 67,57000,60,1,1,2,1,1970,Buono / Abitabile,7.6887875,45.0902605
15/04/2023,Torino,Rebaudengo,corso Giulio Cesare 299,179000,150,7,1,5,2,1973,Buono / Abitabile,7.7032719,45.1074142
15/03/2023,Torino,Barriera di Milano,lombardore 11,39900,55,1,0,3,1,1960,Nuovo / In costruzione,7.691782,45.0881807
14/03/2023,Torino,Aurora,corso Novara 10,39900,34,0,0,2,1,1915,Ottimo / Ristrutturato,7.6898721,45.0879767
13/02/2023,Torino,Aurora,via Clemente Damiano Priocca 10,159000,95,3,1,4,1,1930,Da ristrutturare,7.6860601,45.0777869
08/03/2023,Torino,Barriera di Milano,corso Giulio Cesare 135,245000,156,4,1,4,2,1930,Buono / Abitabile,7.694871,45.0942663
22/11/2022,Torino,Barriera di Milano,via Puccini 5,133000,100,4,1,3,2,1980,Ottimo / Ristrutturato,7.5733927,45.0665893
03/11/2022,Torino,Aurora,via Aosta 23,119000,75,1,0,3,1,1950,Buono / Abitabile,7.6902666,45.0833484
23/02/2023,Torino,Aurora,via Alessandria 41,99000,70,0,1,3,1,1960,Ottimo / Ristrutturato,7.6916467,45.0830019
21/02/2023,Torino,Barriera di Milano,via Lauro Rossi 57,49000,45,0,0,2,1,1930,Ottimo / Ristrutturato,7.6887412,45.0962342
08/05/2023,Torino,Barriera di Milano,via Monte Rosa 88,55000,56,0,0,3,1,1950,Buono / Abitabile,7.697095,45.0932063
05/12/2022,Torino,Barriera di Milano,via Parella 13,149000,138,3,0,5,1,1900,Buono / Abitabile,7.681034,45.0917038
10/03/2023,Torino,Rebaudengo,via Gottardo 105,40000,54,1,0,2,1,1950,Buono / Abitabile,7.6966822,45.0978942
18/04/2023,Torino,Barriera di Milano,via Luigi Salvatore Cherubini 55,59900,42,1,0,2,1,1930,Ottimo / Ristrutturato,7.7011963,45.0928836
09/05/2023,Torino,Rebaudengo,via Nicola Porpora 26,129000,90,4,1,4,1,1955,Ottimo / Ristrutturato,7.6971561,45.0994432
03/04/2023,Torino,Aurora,via Vittorio Andreis 4A,42000,30,0,0,1,1,1900,Da ristrutturare,7.6844093,45.0793006
07/02/2023,Torino,Barriera di Milano,via Gaspare Spontini 26,38000,36,1,0,2,1,1900,Ottimo / Ristrutturato,7.6986156,45.0933164
26/04/2023,Torino,Rebaudengo,via Cristina Belgioioso 12,155000,100,2,1,4,2,1990,Buono / Abitabile,7.7000337,45.1113048
04/03/2023,Torino,Barriera di Milano,via Leinì 78,39000,33,1,0,2,1,1930,Buono / Abitabile,7.6923327,45.0949805
07/03/2023,Torino,Barriera di Milano,via ozegna 17,99000,100,2,0,3,1,1940,Ottimo / Ristrutturato,7.6946931,45.095601
03/04/2023,Torino,Aurora,via Vittorio Andreis 4A,53000,38,0,0,2,1,1900,Da ristrutturare,7.6844093,45.0793006
27/10/2022,Torino,Aurora,via Luigi Damiano,169000,80,5,1,3,1,1980,Ottimo / Ristrutturato,7.6847479,45.0873141
09/05/2023,Torino,Barriera di Milano,via Lauro Rossi 36/16,69000,75,2,0,3,1,1960,Ottimo / Ristrutturato,7.6904048,45.0958376
26/10/2022,Torino,Rebaudengo,via Gottardo 37,60000,60,5,1,2,1,1970,Da ristrutturare,7.6920126,45.1005112
03/04/2023,Torino,Rebaudengo,via Umberto Balestreri 18,119000,90,5,1,3,1,1970,Buono / Abitabile,7.7002102,45.1100557
01/03/2023,Torino,Barriera di Milano,via Paisiello,120000,98,1,1,4,2,1960,Buono / Abitabile,7.6418497,44.9990416
01/03/2023,Torino,Barriera di Milano,via Paisiello,60000,50,1,1,2,1,1960,Buono / Abitabile,7.6418497,44.9990416
11/11/2022,Torino,Barriera di Milano,via Lauro Rossi,54000,54,2,0,2,1,1930,Ottimo / Ristrutturato,7.6904048,45.0958376
26/04/2023,Torino,Barriera di Milano,via Saverio Mercadante 15,105000,90,6,1,4,1,1963,Buono / Abitabile,7.6982349,45.0899239
26/04/2023,Torino,Barriera di Milano,corso Novara 19,63000,60,0,0,1,1,1980,Ottimo / Ristrutturato,7.6917022,45.0876392
08/05/2023,Torino,Aurora,via Luigi Damiano 5/14,145000,77,1,1,3,1,2006,Ottimo / Ristrutturato,7.6847479,45.0873141
08/05/2023,Torino,Aurora,via Luigi Damiano 5/16,150000,76,1,1,3,1,2006,Ottimo / Ristrutturato,7.6847479,45.0873141
28/02/2023,Torino,Rebaudengo,corso Giulio Cesare 181,88000,55,2,1,2,2,2014,,7.6974193,45.0981613
03/12/2022,Torino,Rebaudengo,corso Giulio Cesare 285,133000,115,9,1,5,1,1980,Ottimo / Ristrutturato,7.7027348,45.1066021
01/03/2023,Torino,Barriera di Milano,via Paisiello,60000,50,1,1,2,1,1960,Buono / Abitabile,7.6418497,44.9990416
08/05/2023,Torino,Aurora,via Luigi Damiano 5/16,295000,153,1,1,5,2,2006,Ottimo / Ristrutturato,7.6847479,45.0873141
24/11/2022,Torino,Barriera di Milano,via Monte Rosa 67,79900,80,1,0,4,1,1929,Ottimo / Ristrutturato,7.6955132,45.0911181
14/04/2023,Torino,Aurora,Mansarda corso Brescia 7,32000,50,5,0,2,1,1950,Buono / Abitabile,,
21/10/2022,Torino,Rebaudengo,piazza Conti di Rebaudengo 19,68000,45,1,1,2,1,1960,Ottimo / Ristrutturato,7.6948383,45.1039812
08/05/2023,Torino,Aurora,via Cuneo 53,105000,75,0,0,3,1,1953,Buono / Abitabile,7.6799291,45.0864099
21/10/2022,Torino,Barriera di Milano,Loft via Valprato 69,217000,71,0,1,3,2,2023,Nuovo / In costruzione,,
21/03/2023,Torino,Barriera di Milano,largo SEMPIONE 170,44900,45,2,1,2,1,1980,Buono / Abitabile,7.6997238,45.0956252
13/04/2023,Torino,Aurora,via Sassari 31,35000,30,1,0,1,1,1900,Da ristrutturare,7.676805,45.0824737
19/10/2022,Torino,Barriera di Milano,via Pier Fortunato Calvi 34,75000,75,2,1,3,1,1950,Buono / Abitabile,7.6976778,45.096261
20/12/2022,Torino,Barriera di Milano,via Renato Martorelli 11,279900,147,5,1,5,2,1930,Ottimo / Ristrutturato,7.6935261,45.0937209
19/10/2022,Torino,Barriera di Milano,via Errico Petrella 19,120000,95,1,0,4,1,1800,Buono / Abitabile,7.6998712,45.0888428
19/10/2022,Torino,Barriera di Milano,Mansarda via Errico Petrella 19,85000,95,2,0,3,1,1800,Buono / Abitabile,,
21/04/2023,Torino,Barriera di Milano,via BELMONTE 15,49000,37,0,1,1,1,2000,Buono / Abitabile,7.6878281,45.0932889
27/02/2023,Torino,Barriera di Milano,via Giovanni Pierluigi da Palestrina 15,55000,68,1,1,2,1,1955,Ottimo / Ristrutturato,,
01/02/2023,Torino,Aurora,corso Novara 36,99000,87,2,1,3,1,1970,Buono / Abitabile,7.6925252,45.0865938
01/03/2023,Torino,Barriera di Milano,via pont 6,84000,86,0,0,4,1,1940,Ottimo / Ristrutturato,7.6801239,45.0911451
13/01/2023,Torino,Aurora,Lungo Dora Napoli 50,45000,50,1,0,2,1,1950,Da ristrutturare,7.6806334,45.0855047
13/01/2023,Torino,Barriera di Milano,Loft via Valprato 69,392000,221,0,1,4,2,2022,Nuovo / In costruzione,,
09/11/2022,Torino,Aurora,Lungo Dora Napoli 18,56000,65,2,0,3,1,1960,Da ristrutturare,7.6844196,45.0830547
18/04/2023,Torino,Barriera di Milano,via Antonio Banfo 59,47000,98,2,0,4,2,1980,Da ristrutturare,7.6874572,45.0936327
17/10/2022,Torino,Aurora,da ristrutturare,160000,150,1,1,5,2,1951,Da ristrutturare,,
20/03/2023,Torino,Barriera di Milano,via Luigi Salvatore Cherubini 55,65000,52,2,0,2,1,1955,Buono / Abitabile,7.7011963,45.0928836
22/10/2022,Torino,Barriera di Milano,via Muzio Clementi 21,49500,60,1,1,2,1,1960,Da ristrutturare,7.6951695,45.0875974
07/04/2023,Torino,Barriera di Milano,corso Novara 53,105000,79,5,1,3,1,1966,Ottimo / Ristrutturato,7.6962475,45.0849936
06/04/2023,Torino,Aurora,corso Principe Oddone 42,210000,110,3,1,5,1,1930,Ottimo / Ristrutturato,7.6731107,45.0827837
28/02/2023,Torino,Barriera di Milano,Palazzo - Edificio in Vendita,335000,478,4,0,5,1,1950,Da ristrutturare,,
17/04/2023,Torino,Barriera di Milano,via Luigi Salvatore Cherubini 68,59000,80,5,1,3,1,1960,Ottimo / Ristrutturato,7.702406,45.0927702
12/04/2023,Torino,Barriera di Milano,via Alagna 3,200000,170,4,1,3,2,2000,Ottimo / Ristrutturato,7.6799792,45.091326
17/02/2023,Torino,Aurora,corso Regio Parco 37,230000,113,3,0,4,2,1900,Buono / Abitabile,7.6975689,45.078439
24/10/2022,Torino,Aurora,corso Giulio Cesare 39,68000,71,9,1,2,1,1965,Da ristrutturare,7.6883354,45.0842597
12/10/2022,Torino,Aurora,corso Regina Margherita 148,105000,45,4,0,2,1,1900,Buono / Abitabile,7.6790416,45.0784807
14/04/2023,Torino,Rebaudengo,corso Vercelli,79000,70,4,1,3,1,1960,Da ristrutturare,7.7082577,45.1182925
08/05/2023,Torino,Rebaudengo,via Gottardo 37,60000,60,2,1,2,1,1980,Da ristrutturare,7.6920126,45.1005112
08/04/2023,Torino,Aurora,via Varese,198000,124,3,1,4,1,1940,Buono / Abitabile,7.5384644,45.0744054
21/04/2023,Torino,Barriera di Milano,via Chatillon 3,27900,41,0,0,2,1,1940,Ottimo / Ristrutturato,7.6892069,45.0935304
21/03/2023,Torino,Barriera di Milano,via SEMPIONE,89000,70,3,1,3,1,1950,Ottimo / Ristrutturato,7.6993391,45.0964143
06/10/2022,Torino,Barriera di Milano,Loft via Valprato 69,345000,111,0,1,5,2,2022,Nuovo / In costruzione,,
27/03/2023,Torino,Barriera di Milano,via Verres 1,69000,60,5,1,2,1,1960,,7.6933184,45.0938898
06/10/2022,Torino,Barriera di Milano,Loft via Valprato 69,245000,80,0,1,3,2,2022,Nuovo / In costruzione,,
05/05/2023,Torino,Barriera di Milano,via Monte Rosa 81,77000,65,3,1,3,2,1950,Ottimo / Ristrutturato,7.495167722799426,45.07637875
22/03/2023,Torino,Aurora,via Padova 5,59000,45,4,1,2,1,1930,Buono / Abitabile,7.6936472,45.0843809
04/04/2023,Torino,Rebaudengo,via roppolo 2,49900,45,3,1,2,1,1968,Da ristrutturare,7.6957226,45.1023086
21/03/2023,Torino,Barriera di Milano,via Pont  1,39000,52,3,1,2,1,1955,Buono / Abitabile,7.6805927,45.0908606
09/05/2023,Torino,Barriera di Milano,unifamiliare via montanaro 25,210000,148,0,0,5,3,1900,Buono / Abitabile,,
13/04/2023,Torino,Aurora,corso Principe Oddone 38,199000,112,2,0,4,3,1940,Ottimo / Ristrutturato,7.6728867,45.0824637
18/03/2023,Torino,Barriera di Milano,via Monte Rosa 63,69000,115,0,0,4,1,1928,Buono / Abitabile,7.695324,45.0908287
23/11/2022,Torino,Barriera di Milano,corso Vercelli 94,43000,50,1,0,2,1,1967,Buono / Abitabile,7.6903922,45.0930295
29/09/2022,Torino,Rebaudengo,via Federico Patetta 12,64000,60,2,1,2,1,1965,Buono / Abitabile,7.69861,45.1040761
31/03/2023,Torino,Barriera di Milano,via CHIUSELLA 17,59000,84,1,0,3,1,1950,Buono / Abitabile,7.6906004,45.0896846
01/02/2023,Torino,Barriera di Milano,via Scarlatti,59000,58,0,0,2,1,1980,Da ristrutturare,7.6940813,45.0908232
20/04/2023,Torino,Rebaudengo,via Rocco Scotellaro 43,94000,100,8,1,4,1,1970,Buono / Abitabile,7.7023551,45.1081524
02/05/2023,Torino,Barriera di Milano,V.Vestignè 3,42000,40,1,0,2,1,1940,Buono / Abitabile,7.6927486,45.0932529
08/05/2023,Torino,Rebaudengo,unifamiliare via Silvestro Lega 4,260000,150,0,0,4,2,2001,Ottimo / Ristrutturato,,
23/03/2023,Torino,Barriera di Milano,via Luigi Salvatore Cherubini 73,50000,64,6,1,2,1,1980,Buono / Abitabile,7.7041113,45.0930045
27/09/2022,Torino,Barriera di Milano,via Saverio Mercadante 15,52000,65,1,1,2,1,1965,Da ristrutturare,7.6982349,45.0899239
17/04/2023,Torino,Barriera di Milano,corso Vercelli 129,115000,60,1,1,2,1,1980,Buono / Abitabile,7.691924,45.0966712
05/04/2023,Torino,Barriera di Milano,piazza Ottorino Respighi 9,145000,80,2,1,3,1,1958,Ottimo / Ristrutturato,7.7031514,45.0924231
10/02/2023,Torino,Barriera di Milano,via Alessandro Scarlatti 31,59000,58,0,1,2,1,1970,Da ristrutturare,7.6975578,45.0900572
16/11/2022,Torino,Aurora,corso Regina Margherita 144,88000,45,3,1,2,1,1950,Ottimo / Ristrutturato,7.6799391,45.0781816
20/09/2022,Torino,Aurora,corso 11 Febbraio 27,250000,125,1,1,4,2,1960,Ottimo / Ristrutturato,7.6877972,45.078598
18/11/2022,Torino,Aurora,Mansarda corso Regina Margherita 144,88000,45,3,1,2,1,1950,Ottimo / Ristrutturato,,
21/09/2022,Torino,Barriera di Milano,via Puccini  5,129000,78,3,1,3,1,2016,Ottimo / Ristrutturato,7.5733927,45.0665893
15/12/2022,Torino,Aurora,via Varese,89000,94,2,1,4,1,1933,Buono / Abitabile,7.5384644,45.0744054
20/01/2023,Torino,Barriera di Milano,via Lombardore,89000,94,2,1,4,1,1933,Buono / Abitabile,7.7405131,45.2411203
04/04/2023,Torino,Barriera di Milano,via Monte Rosa 30,49000,55,3,0,2,1,1970,Buono / Abitabile,7.6943431,45.088543
24/03/2023,Torino,Rebaudengo,piazza Conti di Rebaudengo,180000,178,3,1,5,3,1980,Ottimo / Ristrutturato,7.6955841,45.102463
04/03/2023,Torino,Barriera di Milano,via MALONE 44,119000,85,2,1,3,1,2000,Ottimo / Ristrutturato,7.695415,45.0886487
12/01/2023,Torino,Rebaudengo,corso Vercelli 177,64000,65,8,1,2,1,1965,Buono / Abitabile,7.693595,45.1005338
13/09/2022,Torino,Aurora,via Varese 2,129000,100,4,1,4,1,1930,Buono / Abitabile,7.6905674,45.0866265
02/05/2023,Torino,Aurora,corso Giulio Cesare 55,24900,45,2,0,2,1,1900,Buono / Abitabile,7.6896231,45.0862327
02/05/2023,Torino,Aurora,corso Giulio Cesare 55,69900,65,2,0,4,1,1900,Buono / Abitabile,7.6896231,45.0862327
05/05/2023,Torino,Aurora,corso 11 Febbraio 27,250000,125,1,1,4,2,1960,Ottimo / Ristrutturato,7.6877972,45.078598
26/04/2023,Torino,Barriera di Milano,Palazzo - Edificio in Vendita,125000,75,4,0,3,1,1970,Ottimo / Ristrutturato,,
14/02/2023,Torino,Aurora,via Bra 10,49900,55,1,0,2,1,1959,Ottimo / Ristrutturato,7.6878155,45.0858563
08/09/2022,Torino,Barriera di Milano,via Rondissone 26,65000,74,2,1,3,1,1960,Buono / Abitabile,7.6910734,45.0972038
23/03/2023,Torino,Aurora,via Sigismondo Gerdil,95000,99,2,0,3,2,1950,Ottimo / Ristrutturato,7.6775079,45.0789891
06/05/2023,Torino,Barriera di Milano,via Goletta,127000,95,2,0,3,2,1960,Ottimo / Ristrutturato,7.6888978,45.0917189
13/04/2023,Torino,Quadrilatero Romano,via Delle Orfane 29,195000,134,1,0,5,1,1930,Da ristrutturare,7.6804594,45.0773305
17/04/2023,Torino,Barriera di Milano,via Umberto Giordano 12,45000,60,5,1,2,1,1960,Buono / Abitabile,7.703599,45.0913837
07/09/2022,Torino,Barriera di Milano,via Valprato 26,32000,64,2,0,3,1,1940,Buono / Abitabile,7.6875808,45.0925444
02/05/2023,Torino,Barriera di Milano,via Monte Rosa 129,125000,118,0,0,5,1,1950,Ottimo / Ristrutturato,7.6986191,45.0958431
03/11/2022,Torino,Barriera di Milano,via Gaspare Spontini,460000,512,4,0,5,3,1950,Buono / Abitabile,7.6973549,45.0937508
22/12/2022,Torino,Barriera di Milano,via pont 14,24900,52,1,0,2,1,1940,Buono / Abitabile,7.6793647,45.091406
27/02/2023,Torino,Aurora,corso Palermo 82,205000,90,3,1,4,2,2009,Ottimo / Ristrutturato,7.6932868,45.0856855
06/05/2023,Torino,Barriera di Milano,via Ruggero Leoncavallo 45c,229000,166,3,1,5,2,1980,Buono / Abitabile,7.6428246,44.9968329
20/01/2023,Torino,Aurora,via Piossasco 24,39000,50,5,0,2,1,1960,Buono / Abitabile,7.6814788,45.0880321
25/01/2023,Torino,Barriera di Milano,via Monte Nero 5,29000,50,2,1,2,1,1940,Da ristrutturare,7.6964582,45.0952556
01/03/2023,Torino,Barriera di Milano,via bairo 3,49900,75,3,0,3,1,1960,Da ristrutturare,7.6936143,45.0980338
16/11/2022,Torino,Barriera di Milano,via Saverio Mercadante 46,69900,82,4,1,3,2,1950,Buono / Abitabile,7.7000778,45.0923543
14/03/2023,Torino,Aurora,via Bra,58900,65,4,0,3,1,1935,Ottimo / Ristrutturato,7.6869788,45.0860567
03/04/2023,Torino,Barriera di Milano,via Leinì 48,89000,77,2,0,3,1,1950,Ottimo / Ristrutturato,7.6918488,45.0926832
20/03/2023,Torino,Aurora,via Rovigo 7,80850,88,3,1,3,1,1958,Da ristrutturare,7.6773428,45.0828571
20/03/2023,Torino,Aurora,via Rovigo 7,84240,92,3,1,3,1,1958,Da ristrutturare,7.6773428,45.0828571
18/03/2023,Torino,Aurora,via Rovigo 7,80080,92,3,1,3,1,1958,,7.6773428,45.0828571
20/03/2023,Torino,Aurora,via Rovigo 7,72000,83,3,1,3,1,1958,Da ristrutturare,7.6773428,45.0828571
29/07/2022,Torino,Barriera di Milano,Terratetto unifamiliare via Aosta 121,87000,130,2,0,4,2,1970,Da ristrutturare,,
25/04/2023,Torino,Barriera di Milano,via Tollegno 39,260000,145,7,1,4,2,1980,Ottimo / Ristrutturato,7.7007005,45.0862773
25/07/2022,Torino,Barriera di Milano,Loft via Crescentino,109000,170,2,1,3,1,1980,Da ristrutturare,,
20/01/2023,Torino,Barriera di Milano,via spontini 4,68500,77,4,1,3,1,1960,Buono / Abitabile,,
18/04/2023,Torino,Rebaudengo,via Campobasso 35,165000,110,4,1,4,1,2000,Ottimo / Ristrutturato,7.7011616,45.1075598
02/05/2023,Torino,Barriera di Milano,via Franco Alfano 5,155000,110,2,1,4,2,1970,Buono / Abitabile,7.7034725,45.0938961
26/07/2022,Torino,Barriera di Milano,via Borriana 8,70000,65,0,0,3,1,1948,Da ristrutturare,7.7051729,45.0875026
12/09/2022,Torino,Aurora,via Salerno,19500,28,4,0,1,1,1900,Buono / Abitabile,7.675769,45.0827852
14/02/2023,Torino,Barriera di Milano,corso Giulio Cesare 148,75000,80,3,1,3,1,1939,Buono / Abitabile,7.6960614,45.0955141
29/11/2022,Torino,Rebaudengo,via Vistrorio 40,133000,90,4,1,3,1,1970,Ottimo / Ristrutturato,7.7007055,45.1078586
08/11/2022,Torino,Rebaudengo,via Giovanni Poggio 21,89000,90,3,1,3,1,1970,Da ristrutturare,7.6955481,45.0988869
28/02/2023,Torino,Barriera di Milano,via Brandizzo 91/A,38900,47,4,0,2,1,1950,Ottimo / Ristrutturato,7.7027106,45.0903013
06/03/2023,Torino,Barriera di Milano,via Francesco Cigna 156,54900,51,2,1,2,1,1940,Da ristrutturare,7.6882124,45.0956889
01/02/2023,Torino,Aurora,via Ravenna,105000,60,0,0,3,1,1980,Ottimo / Ristrutturato,7.6740901,45.0826196
09/05/2023,Torino,Barriera di Milano,via Luigi Salvatore Cherubini 76,70000,50,1,1,2,1,1966,Buono / Abitabile,7.704363,45.0928446
20/09/2022,Torino,Aurora,Mansarda corso Regina Margherita 144,220000,100,3,1,4,2,1950,Ottimo / Ristrutturato,,
08/07/2022,Torino,Barriera di Milano,Terratetto plurifamiliare via G  Spontini 28,290000,250,0,0,5,1,1930,Ottimo / Ristrutturato,,
05/07/2022,Torino,Aurora,corso Vercelli 28,48000,50,0,0,2,1,1950,Buono / Abitabile,7.6872411,45.0866091
05/07/2022,Torino,Aurora,Lungo Dora Firenze 61,210000,80,0,1,4,3,1900,Ottimo / Ristrutturato,7.6909341,45.0777689
03/03/2023,Torino,Aurora,Mansarda corso Regina Margherita 144,220000,100,3,1,4,2,1950,Buono / Abitabile,,
20/04/2023,Torino,Aurora,corso Palermo 38,97000,75,1,0,3,1,1940,Buono / Abitabile,7.692998,45.0820281
01/02/2023,Torino,Barriera di Milano,via Pierluigi Palestrina 39,64900,67,5,1,3,1,1940,Buono / Abitabile,,
01/12/2022,Torino,Barriera di Milano,via Francesco Cigna 121,100000,54,2,1,2,1,2017,Ottimo / Ristrutturato,7.6857481,45.092961
01/07/2022,Torino,Barriera di Milano,via Ozegna 17,65000,75,4,0,3,1,1930,Buono / Abitabile,7.6946931,45.095601
17/02/2023,Torino,Rebaudengo,corso Vercelli 181,59000,65,3,1,2,1,1970,Da ristrutturare,7.693697,45.100741
14/02/2023,Torino,Rebaudengo,via Arturo Toscanini 12,83000,85,1,1,3,1,1971,Buono / Abitabile,7.6927838,45.1010739
27/03/2023,Torino,Aurora,via Mondovì,93000,60,6,1,2,1,1980,Da ristrutturare,7.541336,45.0765238
08/05/2023,Torino,Barriera di Milano,via Alessandro Scarlatti,59000,58,1,1,2,1,1980,,7.6940813,45.0908232
18/03/2023,Torino,Rebaudengo,via Gottardo 37/A,129900,85,3,1,3,1,1970,Ottimo / Ristrutturato,7.6919463,45.1005286
22/12/2022,Torino,Barriera di Milano,corso Giulio Cesare 119/A,54900,73,1,0,3,1,1940,Buono / Abitabile,7.6941677,45.0931883
09/05/2023,Torino,Barriera di Milano,via Ruggero Leoncavallo 45/E,144000,130,1,1,4,2,1980,,7.6428246,44.9968329
08/05/2023,Torino,Aurora,via Perugia 5,79000,41,2,0,1,1,1940,Ottimo / Ristrutturato,7.6910988,45.0781478
06/03/2023,Torino,Barriera di Milano,corso Vercelli 97,42000,55,2,1,2,1,1960,Da ristrutturare,7.690348,45.0934552
06/10/2022,Torino,Barriera di Milano,Loft via Valprato 69,430000,149,0,1,5,2,2022,Nuovo / In costruzione,,
23/03/2023,Torino,Aurora,Palazzo - Edificio in Vendita,980000,714,0,0,1,1,2012,Ottimo / Ristrutturato,,
17/04/2023,Torino,Barriera di Milano,via Alessandro Scarlatti 29,59000,58,0,1,2,1,1989,Ottimo / Ristrutturato,7.6974398,45.0900854
20/04/2023,Torino,Rebaudengo,via Rocco Scotellaro 33,99900,100,9,1,4,1,1973,Buono / Abitabile,7.7025108,45.1072605
16/11/2022,Torino,Aurora,corso Giulio Cesare,179000,111,5,1,5,1,1960,Ottimo / Ristrutturato,7.71119,45.1187164
18/06/2022,Torino,Aurora,via Maria Ausiliatrice 52,59000,22,1,0,1,1,1980,Ottimo / Ristrutturato,7.6729024,45.081563
06/05/2023,Torino,Barriera di Milano,via Antonio Banfo 67,35000,37,2,0,2,1,1980,Buono / Abitabile,7.6875601,45.0940957
22/12/2022,Torino,Barriera di Milano,via Verrès 6,64900,60,0,1,2,1,1940,Ottimo / Ristrutturato,7.6926358,45.0942445
08/03/2023,Torino,Barriera di Milano,via Volpianoo 12,45000,61,4,0,3,1,1940,Ottimo / Ristrutturato,,
23/02/2023,Torino,Rebaudengo,corso Giulio Cesare 177,99000,75,6,1,3,1,1960,Ottimo / Ristrutturato,7.6972641,45.0979239
08/05/2023,Torino,Aurora,corso Principe Oddone,118000,70,5,1,3,1,1934,Buono / Abitabile,7.6737377,45.0844289
01/03/2023,Torino,Rebaudengo,corso Vercelli 177,59900,67,8,1,2,1,1970,Buono / Abitabile,7.693595,45.1005338
25/11/2022,Torino,Barriera di Milano,via MONTEROSA 77,67900,64,3,1,3,1,1980,Ottimo / Ristrutturato,7.7640946,45.2023838
21/04/2023,Torino,Barriera di Milano,corso Vercelli 66,89900,99,2,1,4,1,1967,Buono / Abitabile,7.6890891,45.0903772
06/03/2023,Torino,Barriera di Milano,via CHIUSELLA 17,89000,110,3,0,5,1,1960,Da ristrutturare,7.6906004,45.0896846
09/06/2022,Torino,Barriera di Milano,via Montanaro,38000,48,2,0,2,1,1965,,7.8825874,45.1945488
07/03/2023,Torino,Barriera di Milano,piazza Francesco Crispi 59,60000,50,2,1,2,1,1980,Ottimo / Ristrutturato,7.6880188,45.0897636
14/04/2023,Torino,Barriera di Milano,via PARELLA 13,92000,145,4,0,5,1,1950,Da ristrutturare,7.681034,45.0917038
12/07/2022,Torino,Rebaudengo,corso Vercelli 191,64000,75,3,0,3,1,1930,Ottimo / Ristrutturato,7.6940915,45.1013327
05/05/2023,Torino,Barriera di Milano,via Luigi Salvatore Cherubini 76,79000,80,2,1,3,1,1967,Buono / Abitabile,7.704363,45.0928446
08/04/2023,Torino,Rebaudengo,via campobasso 12,149000,100,3,1,4,1,1970,Ottimo / Ristrutturato,7.6984857,45.1083369
21/04/2023,Torino,Barriera di Milano,via Antonio Banfo 58,49000,69,2,0,3,1,1930,Buono / Abitabile,7.6876045,45.0936121
01/03/2023,Torino,Barriera di Milano,via Malone,100000,90,4,0,3,1,1980,Buono / Abitabile,7.6907263,45.0897757
08/06/2022,Torino,Barriera di Milano,via Palestrina  29,39000,46,1,1,2,1,1960,Ottimo / Ristrutturato,7.6908567,45.0935682
08/05/2023,Torino,Aurora,via Brindisi 15,349000,520,0,0,3,3,1912,Da ristrutturare,7.6745546,45.081782
27/05/2022,Torino,Rebaudengo,corso Vercelli 163,65000,65,4,1,2,1,1966,Da ristrutturare,7.9125205,45.4705444
18/03/2023,Torino,Barriera di Milano,corso Vercelli 129,109000,85,4,1,3,1,1960,Ottimo / Ristrutturato,7.691924,45.0966712
15/02/2023,Torino,Barriera di Milano,piazza Crispi 59,68000,65,1,0,2,1,1940,Buono / Abitabile,7.6880188,45.0897636
21/02/2023,Torino,Barriera di Milano,via Renato Martorelli 37,35000,40,0,0,2,1,1980,Buono / Abitabile,7.6936631,45.0957587
23/05/2022,Torino,Aurora,via Borgo Dora 35,195000,130,1,0,5,1,1980,Da ristrutturare,7.6838229,45.0801566
18/07/2022,Torino,Aurora,via Giaveno 38,95000,78,2,1,3,1,1950,Ottimo / Ristrutturato,7.6808437,45.0892891
15/03/2023,Torino,Barriera di Milano,via Monte Nero 8,75000,75,3,1,3,1,1960,Buono / Abitabile,7.6969271,45.0949624
22/12/2022,Torino,Barriera di Milano,via Valprato 69,498400,190,2,1,4,2,2022,Nuovo / In costruzione,7.6818385,45.0933121
15/04/2023,Torino,Rebaudengo,corso Giulio Cesare,115000,120,4,1,5,1,1973,Buono / Abitabile,7.71119,45.1187164
08/03/2023,Torino,Rebaudengo,piazza Conti di Rebaudengo 3/23,85900,80,2,0,4,1,1960,Buono / Abitabile,7.6955841,45.102463
16/05/2022,Torino,Barriera di Milano,via Renato Martorelli 75,79000,75,3,1,3,1,1960,Ottimo / Ristrutturato,7.6937956,45.0977891
31/03/2023,Torino,Barriera di Milano,via Volpianoo 5,165000,136,3,1,5,1,1960,Ottimo / Ristrutturato,,
04/11/2022,Torino,Barriera di Milano,via Aosta 51,185000,92,2,1,4,2,1980,Buono / Abitabile,7.6943229,45.0870207
25/07/2022,Torino,Barriera di Milano,via Parella 13,149000,113,0,0,4,1,1980,,7.681034,45.0917038
17/03/2023,Torino,Barriera di Milano,via Malone 22,73000,70,3,1,3,1,1980,Buono / Abitabile,7.6927613,45.089259
25/07/2022,Torino,Aurora,via Urbino 34,69000,42,5,0,3,1,1980,Buono / Abitabile,7.6789067,45.0844094
04/04/2023,Torino,Rebaudengo,Mansarda via Nicola Porpora 3,99000,55,6,1,2,1,1970,Nuovo / In costruzione,,
20/04/2023,Torino,Rebaudengo,corso Vercelli 247,119900,95,4,1,4,1,1967,Buono / Abitabile,7.6965129,45.1063853
10/01/2023,Torino,Aurora,corso Vercelli 11,268000,180,1,0,5,1,1950,Ottimo / Ristrutturato,7.6849095,45.083596
29/03/2023,Torino,Barriera di Milano,corso Giulio Cesare 174,70000,75,2,1,3,1,1952,Buono / Abitabile,7.6971167,45.0971167
09/05/2023,Torino,Rebaudengo,via San Germano 1,65000,60,1,0,2,1,1900,Buono / Abitabile,7.6947725,45.1015045
03/05/2022,Torino,Barriera di Milano,corso Giulio Cesare 146,79900,80,3,1,3,1,1948,Ottimo / Ristrutturato,7.695844,45.095184
01/05/2023,Torino,Barriera di Milano,via Soana 18,98000,103,2,0,1,1,1980,Buono / Abitabile,7.6906596,45.0913275
14/04/2023,Torino,Barriera di Milano,via BELMONTE 1,35000,55,2,0,3,1,1940,Buono / Abitabile,7.6899251,45.0930721
26/04/2023,Torino,Barriera di Milano,via Montanaro 8,69000,85,4,0,3,1,1980,Ottimo / Ristrutturato,7.6939443,45.0903835
16/03/2023,Torino,Aurora,corso Principe Oddone 82,165000,90,3,1,4,1,1929,Ottimo / Ristrutturato,7.6761005,45.0870478
13/09/2022,Torino,Barriera di Milano,via Monte Rosa 61,114900,110,4,0,4,1,1960,Ottimo / Ristrutturato,7.6952463,45.0907099
22/04/2022,Torino,Aurora,via CREMONA,115000,60,1,1,3,1,1980,Buono / Abitabile,7.6898255,45.0859909
14/04/2023,Torino,Barriera di Milano,piazza Francesco Crispi 55,44900,75,2,1,4,1,1930,Da ristrutturare,7.6879512,45.0896262
